[{"address":"11znpbYcMuQ6PQZSBu2NDJYQ2ccdPPidCi96Cw4vTng61RXcZAt","name":"flat-pearl-huskie","lat":"51.51871612677159","lng":"-0.17002484963580666","beac_rate":1.5,"ref_rss":"-102.91408608898774","w_N":10,"w_NE":1,"w_E":0,"w_SE":0,"w_S":0,"w_SW":0,"w_W":2,"w_NW":1},{"address":"112bH3qDEYYy6F8YBGwFcN37FjATeGLecbGx6vevdcJsCRnib2rU","name":"sneaky-mandarin-condor","lat":"51.518283870794455","lng":"-0.170012522170496","beac_rate":5.5,"ref_rss":"-98.40100551185401","w_N":4,"w_NE":2,"w_E":1,"w_SE":0,"w_S":3,"w_SW":2,"w_W":1,"w_NW":0},{"address":"11oyCLdeUnxRwNCMrdMbosMLYRXyG3Sk3nbARUapVV9W1DcFP5K","name":"fun-chartreuse-jaguar","lat":"51.48418322947325","lng":"0.08078909240349841","beac_rate":4.5,"ref_rss":"-71.30553388005376","w_N":4,"w_NE":1,"w_E":6,"w_SE":42,"w_S":47,"w_SW":3,"w_W":1,"w_NW":0},{"address":"112cccxTWpaQjoMtm8VJHdLY5KtfrznQfg66htM5atevXgx5A2wX","name":"lone-viridian-hippo","lat":"51.495238396571665","lng":"-0.18958445001982466","beac_rate":45,"ref_rss":"-103.21047616793341","w_N":4,"w_NE":4,"w_E":3,"w_SE":5,"w_S":14,"w_SW":3,"w_W":2,"w_NW":9},{"address":"11kpy4VQnfhrrC8gRMd7gF89SxEgjKhRW9aSFY7p6kBiKJ3dj2z","name":"fun-ebony-snake","lat":"51.52864093030519","lng":"-0.1274425671879582","beac_rate":38.5,"ref_rss":"-112.37640537641607","w_N":27,"w_NE":5,"w_E":4,"w_SE":10,"w_S":9,"w_SW":4,"w_W":1,"w_NW":4},{"address":"11xwiST1HHRcue29hN9QpVa2CJz9AvprjtpLVmDivRiZesy4gZ3","name":"round-cinnabar-sidewinder","lat":"51.519072447029146","lng":"-0.161197803675896","beac_rate":20,"ref_rss":"-109.46302534138823","w_N":2,"w_NE":3,"w_E":1,"w_SE":5,"w_S":10,"w_SW":0,"w_W":0,"w_NW":0},{"address":"112UyL4hSS8QDp4iirDjCjUVeFaJMdcU1UmiSzDr765GpYuQgKj4","name":"passive-pistachio-scallop","lat":"51.52704578444053","lng":"-0.13739019858325122","beac_rate":19,"ref_rss":"-97.80043960554839","w_N":5,"w_NE":7,"w_E":5,"w_SE":7,"w_S":1,"w_SW":2,"w_W":0,"w_NW":2},{"address":"112QpxMXDLwoN43bQx6DjwhkPARZXjfHFWYVoKJoE65UUUhDHo4V","name":"uneven-watermelon-locust","lat":"51.492837757646726","lng":"0.06641155840059279","beac_rate":12.5,"ref_rss":"-96.07749843661938","w_N":13,"w_NE":3,"w_E":4,"w_SE":12,"w_S":25,"w_SW":4,"w_W":8,"w_NW":7},{"address":"11azTUWYfY6pusUnWLsd6PE8jYC3kfqgmsJ7BcCrQYPbUp53Xg2","name":"curved-concrete-shark","lat":"51.408225087169384","lng":"-0.07179375815975943","beac_rate":18.5,"ref_rss":"-97.92478948652688","w_N":11,"w_NE":5,"w_E":6,"w_SE":8,"w_S":10,"w_SW":1,"w_W":1,"w_NW":2},{"address":"11g4hAJLPaGUSSfQM6bwwYLfoSkZv7w3YFhiMaoq4j6Whh5gqLQ","name":"generous-pink-hornet","lat":"51.48985514311248","lng":"-0.20511783398164427","beac_rate":51,"ref_rss":"-110.08243347346895","w_N":10,"w_NE":5,"w_E":4,"w_SE":4,"w_S":11,"w_SW":6,"w_W":1,"w_NW":4},{"address":"112wU2R3siCpSB6SBvAd3AhSKEBktHnPLEypF3nveGGi9VetKGE","name":"silly-heather-jay","lat":"51.50105008191533","lng":"-0.2979866740283113","beac_rate":63,"ref_rss":"-109.58325577316728","w_N":0,"w_NE":1,"w_E":2,"w_SE":1,"w_S":3,"w_SW":1,"w_W":0,"w_NW":2},{"address":"11kariGG3YtB5T877TBtS3BjU9Vixu2JLwuxj1krqayu5Cb8Yxz","name":"expert-bubblegum-rooster","lat":"51.48020122146022","lng":"-0.12090078560112677","beac_rate":43.5,"ref_rss":"-105.44012929447943","w_N":12,"w_NE":2,"w_E":1,"w_SE":3,"w_S":3,"w_SW":1,"w_W":4,"w_NW":9},{"address":"112CpX3bnXAVFKuYu9hsW4cxd17uckATSsjr3snN2a5FGfpxBwqo","name":"special-citron-pike","lat":"51.50847632930917","lng":"0.006600087802678757","beac_rate":4.5,"ref_rss":"-104.7566587876854","w_N":16,"w_NE":7,"w_E":3,"w_SE":11,"w_S":21,"w_SW":16,"w_W":5,"w_NW":16},{"address":"112QdohP3Fukvkt9mkMVfcKdi9kdDedbbpBhda5WPH1zC6sehJq","name":"big-indigo-nightingale","lat":"51.50593733366869","lng":"-0.21533357948005263","beac_rate":52,"ref_rss":"-107.63076749072609","w_N":10,"w_NE":11,"w_E":4,"w_SE":4,"w_S":9,"w_SW":9,"w_W":3,"w_NW":4},{"address":"112vYk8Uv6cuEdJGjUoSCTYp9K5dL63GJLbCbHSJtPgVya72sH2C","name":"melted-lipstick-kangaroo","lat":"51.45900914260539","lng":"-0.12278980173258641","beac_rate":31.5,"ref_rss":"-66.51651530168233","w_N":8,"w_NE":9,"w_E":1,"w_SE":2,"w_S":4,"w_SW":5,"w_W":2,"w_NW":2},{"address":"112NMQbBZLwvbThgMBTu62BLBjrcFjGkyrLjr1GRqrB1wPpfC9Gq","name":"narrow-brunette-troll","lat":"51.551341806654406","lng":"-0.13360839965319596","beac_rate":40,"ref_rss":"-105.46029357077087","w_N":2,"w_NE":2,"w_E":1,"w_SE":1,"w_S":4,"w_SW":2,"w_W":2,"w_NW":5},{"address":"112hA6r362a2XNzrkLacXQrm68Vy4wiN23daBmdADX3xS3cwA3Mp","name":"sour-peach-goldfish","lat":"51.48222255454363","lng":"-0.14612355283990308","beac_rate":3.5,"ref_rss":"-81.7060165395476","w_N":7,"w_NE":8,"w_E":4,"w_SE":14,"w_S":26,"w_SW":7,"w_W":3,"w_NW":15},{"address":"112gDhh2SVtJXT7Rq1zY4PPo1TmMDfeeKMBzSY5AFSwHpxYmyFiC","name":"docile-bamboo-blackbird","lat":"51.49942408896608","lng":"-0.04990082539206739","beac_rate":28.5,"ref_rss":"-105.1760124499857","w_N":13,"w_NE":12,"w_E":11,"w_SE":21,"w_S":9,"w_SW":9,"w_W":3,"w_NW":10},{"address":"11F9ZBTVN9zPsaEYoFQjDzcxhVSmgKuMr1GhWb7Mb4bMqAdRayM","name":"wide-strawberry-lemur","lat":"51.55612431923891","lng":"-0.1012765432197814","beac_rate":14.5,"ref_rss":"-91.64925368919204","w_N":15,"w_NE":11,"w_E":3,"w_SE":10,"w_S":14,"w_SW":4,"w_W":2,"w_NW":5},{"address":"1129TZLEZCbsr9hLtUkkQJzXykUsSSwxcSYKuS2hBtN4AThUNGod","name":"spicy-juniper-porcupine","lat":"51.57008038777096","lng":"-0.09992318002227439","beac_rate":3.5,"ref_rss":"-81.39060123723709","w_N":12,"w_NE":5,"w_E":3,"w_SE":6,"w_S":11,"w_SW":15,"w_W":11,"w_NW":34},{"address":"112QaXZFk8DruuQBJF5eBHeRkgMnEmw3dJYe8EAQD9bqEJ3Edeo7","name":"wide-indigo-toad","lat":"51.53928410746145","lng":"-0.07579968415419384","beac_rate":7,"ref_rss":"-89.89122132668015","w_N":32,"w_NE":14,"w_E":13,"w_SE":13,"w_S":21,"w_SW":19,"w_W":27,"w_NW":50},{"address":"112bCp7yDjcs3q5UzAhT7Q5oYnoMNrN8kR2ZV14MvBipKfxHEqAa","name":"brilliant-leather-koala","lat":"51.56137205178351","lng":"-0.25632697843760355","beac_rate":6,"ref_rss":"-75.86120125015994","w_N":0,"w_NE":1,"w_E":0,"w_SE":0,"w_S":1,"w_SW":0,"w_W":0,"w_NW":0},{"address":"112cHub1cngT4dkKZkEj3SRkm8ZjoD2RFatnDfEjZypqMph3hwp3","name":"festive-strawberry-dalmatian","lat":"51.47684961188483","lng":"-0.18352368654845613","beac_rate":26.5,"ref_rss":"-105.9084624091302","w_N":4,"w_NE":4,"w_E":3,"w_SE":2,"w_S":2,"w_SW":6,"w_W":1,"w_NW":1},{"address":"11sDRMB565dTyzWNZgntvTjTh2aNUpZmj4buo98pYq6GE6Fmc2i","name":"nice-watermelon-liger","lat":"51.45637365509309","lng":"0.05255994310404507","beac_rate":7,"ref_rss":"-90.74094454039641","w_N":1,"w_NE":9,"w_E":9,"w_SE":79,"w_S":47,"w_SW":3,"w_W":5,"w_NW":1},{"address":"11WwXYen4dmyUzaq7gdhDXBQtRhnuToNFbueQAU7JAQLeKWeyge","name":"tiny-fuzzy-duck","lat":"51.43515108447474","lng":"-0.10160524004167266","beac_rate":31.5,"ref_rss":"-99.6604345618419","w_N":7,"w_NE":21,"w_E":5,"w_SE":7,"w_S":2,"w_SW":1,"w_W":0,"w_NW":2},{"address":"112kw2jGx1UrPXX1RUCpFAWv5gH2MQCjc4VzDbu8V5fabeNLmbEs","name":"shallow-burlap-scallop","lat":"51.5008387543811","lng":"-0.08986565255377874","beac_rate":25.5,"ref_rss":"-110.23461243283664","w_N":5,"w_NE":0,"w_E":1,"w_SE":1,"w_S":2,"w_SW":3,"w_W":4,"w_NW":5},{"address":"11QXWc8XRU1fkGLQUgzyh9j4NQTtKsvV342uaGBSFJrzQr9WLSX","name":"mysterious-saffron-cormorant","lat":"51.48054324841242","lng":"-0.11117531008021642","beac_rate":16.5,"ref_rss":"-104.6883440785815","w_N":29,"w_NE":11,"w_E":6,"w_SE":3,"w_S":14,"w_SW":6,"w_W":7,"w_NW":11},{"address":"11DaCKLN1G9h6PFeR2WmXht5kqxrRT6F7GaguCqdZJTWDkhgufe","name":"exotic-inky-moth","lat":"51.50151453487085","lng":"-0.090461535773171","beac_rate":24.5,"ref_rss":"-96.88739151664129","w_N":7,"w_NE":1,"w_E":2,"w_SE":4,"w_S":6,"w_SW":4,"w_W":5,"w_NW":5},{"address":"112oiL2jsefeeXHQFSc3vSrz77F9P8mBFcnnpdkBnpfTPwPUiYQc","name":"macho-orange-rhino","lat":"51.527697176327635","lng":"-0.13616967335302316","beac_rate":22.5,"ref_rss":"-102.01456329915656","w_N":15,"w_NE":12,"w_E":5,"w_SE":5,"w_S":2,"w_SW":4,"w_W":0,"w_NW":1},{"address":"112kBzPwF7XmuCUPsZV5xopKoW2gxG4PYbDxFKn4Vbq8ZkPV2xMe","name":"fierce-cobalt-pheasant","lat":"51.59807732191497","lng":"-0.061846368142234945","beac_rate":37,"ref_rss":"-100.90538708444952","w_N":3,"w_NE":4,"w_E":1,"w_SE":1,"w_S":5,"w_SW":1,"w_W":1,"w_NW":8},{"address":"11awhgvDNNfLA8QcvWtxGXa4XqCs6zW9w8eEbcoqMDGDWKpnAxq","name":"low-bronze-fox","lat":"51.515404187223155","lng":"-0.19347059680820225","beac_rate":41,"ref_rss":"-114.82560511117002","w_N":13,"w_NE":3,"w_E":7,"w_SE":5,"w_S":11,"w_SW":10,"w_W":3,"w_NW":5},{"address":"112umsDRPVX9NbZ6W6FmchvLz7XHt9D3SQHxZ5YxY2zVByrpn6B7","name":"soaring-brunette-goblin","lat":"51.490348029658804","lng":"-0.22569603961822268","beac_rate":26.5,"ref_rss":"-107.0941209564012","w_N":23,"w_NE":7,"w_E":2,"w_SE":4,"w_S":6,"w_SW":3,"w_W":6,"w_NW":8},{"address":"118f9V8a67EcBVEKMpm1QrWwGg3QP3iC1om36NKfX3YBzda7hUA","name":"basic-tweed-gibbon","lat":"51.58765605539096","lng":"-0.043725408800261996","beac_rate":10.5,"ref_rss":"-109.25325932034374","w_N":9,"w_NE":9,"w_E":0,"w_SE":9,"w_S":22,"w_SW":10,"w_W":5,"w_NW":21},{"address":"112rGfaAqUnVRubyGBndVPCDPQAXRmUDhDgHM81vDyX2cqufzp14","name":"obedient-velvet-mink","lat":"51.478521652787194","lng":"-0.11276968123661817","beac_rate":12,"ref_rss":"-93.87741170964276","w_N":32,"w_NE":19,"w_E":8,"w_SE":5,"w_S":19,"w_SW":12,"w_W":10,"w_NW":15},{"address":"112B8YsuW71RJVwfj6Am8CEoqfo6Enygofned7K29WTS6iX6hyB6","name":"short-arctic-raccoon","lat":"51.48064731923611","lng":"0.13258181820945064","beac_rate":5,"ref_rss":"-81.49380600201827","w_N":0,"w_NE":0,"w_E":0,"w_SE":14,"w_S":50,"w_SW":1,"w_W":0,"w_NW":0},{"address":"112JTnnW3BA3eof4nPAqJUg3BcSd3muBRmDGFyFF57Y9kt91yMxk","name":"future-stone-badger","lat":"51.45893595408416","lng":"-0.12320014593520283","beac_rate":16.5,"ref_rss":"-88.05521814416325","w_N":13,"w_NE":18,"w_E":8,"w_SE":11,"w_S":4,"w_SW":4,"w_W":3,"w_NW":1},{"address":"112wNjQfXr76Ksw53fPJoRMoYAwZsf8nYpcepag3B3SLHGduJHoa","name":"genuine-punch-goose","lat":"51.466890586850916","lng":"-0.1915733781557504","beac_rate":12.5,"ref_rss":"-95.87530897706657","w_N":25,"w_NE":30,"w_E":22,"w_SE":24,"w_S":15,"w_SW":3,"w_W":8,"w_NW":10},{"address":"11dDrDm1RAtTcjHvN75S7MZQcAeHZhTyH1eek19bgrQXWr8knCH","name":"big-foggy-seagull","lat":"51.45714174866138","lng":"-0.048374043250240445","beac_rate":45,"ref_rss":"-117.71546890010637","w_N":14,"w_NE":25,"w_E":17,"w_SE":8,"w_S":19,"w_SW":1,"w_W":0,"w_NW":4},{"address":"112uTZ6qD6cdK3e3HhKQp13RbEUZhRHZWeSfPtmhHdnyX1XXcyyy","name":"feisty-aqua-gazelle","lat":"51.466494175920026","lng":"-0.1757989975430052","beac_rate":42,"ref_rss":"-112.68006925354928","w_N":4,"w_NE":3,"w_E":3,"w_SE":4,"w_S":7,"w_SW":1,"w_W":0,"w_NW":2},{"address":"112nfYhcwG2S5Z76nHn46Wvu3KpvEXhUYvni2cuj3qDwi8xx9fCj","name":"cuddly-menthol-pike","lat":"51.51181033971066","lng":"-0.1287914228251481","beac_rate":14.5,"ref_rss":"-95.8070393106313","w_N":57,"w_NE":28,"w_E":13,"w_SE":15,"w_S":33,"w_SW":16,"w_W":14,"w_NW":27},{"address":"11eRCEej2NX8ui6dDRn79i9yzjQYCU3y21X9GVoEgUBCUSe4DKy","name":"fierce-iris-jaguar","lat":"51.51246347337643","lng":"-0.22502629449258935","beac_rate":36,"ref_rss":"-113.73038560161929","w_N":9,"w_NE":3,"w_E":1,"w_SE":1,"w_S":9,"w_SW":10,"w_W":4,"w_NW":5},{"address":"1125PknvMza4ZAsmG1GYBzNyS82ZAuupC1Zgy7KX8SQ8GtBaWUN1","name":"trendy-myrtle-hippo","lat":"51.41379209742886","lng":"-0.1243430087886225","beac_rate":0.5,"ref_rss":"-119.03871616049054","w_N":0,"w_NE":2,"w_E":3,"w_SE":11,"w_S":3,"w_SW":0,"w_W":0,"w_NW":0},{"address":"11WgFqjyMNirp13x6pPSiUCP3ny39deofvMWsb2qZfU5z1vb38z","name":"careful-canvas-rhino","lat":"51.52441704498888","lng":"-0.2009194602470205","beac_rate":21,"ref_rss":"-110.67769140278631","w_N":10,"w_NE":4,"w_E":5,"w_SE":5,"w_S":8,"w_SW":9,"w_W":3,"w_NW":4},{"address":"11nbpKBVWfQ5rhYRrwB7AiarkCnkDrLMProcWuMYhdR8Nk2TUPw","name":"tangy-goldenrod-goose","lat":"51.52615464446968","lng":"-0.08031664945477623","beac_rate":15,"ref_rss":"-88.93661895263644","w_N":23,"w_NE":16,"w_E":8,"w_SE":5,"w_S":11,"w_SW":2,"w_W":3,"w_NW":3},{"address":"11VeGEFea7W9rNFqzY36ihuRetuD9rzRk9FEZu1vCNNP9cRoThz","name":"glorious-canvas-lion","lat":"51.58414007458021","lng":"-0.2553570589703267","beac_rate":1.5,"ref_rss":"-88.36143854970703","w_N":6,"w_NE":7,"w_E":1,"w_SE":3,"w_S":1,"w_SW":4,"w_W":3,"w_NW":10},{"address":"116hy15KFW67rotDCwck8eFA5RAStUtxFjJPwE3q22GkuPNmuRe","name":"broad-cherry-wombat","lat":"51.54490825491701","lng":"0.011449110505287819","beac_rate":44,"ref_rss":"-98.43958583857183","w_N":3,"w_NE":1,"w_E":0,"w_SE":7,"w_S":5,"w_SW":4,"w_W":2,"w_NW":1},{"address":"112eGyqom1kDctvknSLmJgWpHuQwPuo6K8Zcu2QKeDVEybY1W1EM","name":"zany-tweed-dachshund","lat":"51.54123490724053","lng":"-0.022120150163585907","beac_rate":32,"ref_rss":"-93.59577241335208","w_N":2,"w_NE":8,"w_E":6,"w_SE":4,"w_S":12,"w_SW":2,"w_W":0,"w_NW":4},{"address":"113FoyWXtehQn1WtGktvoBbVQ3ngH3dB4JERjXwQ3ha8Xa3FnJd","name":"suave-glass-rat","lat":"51.523248388500775","lng":"-0.16214219901129406","beac_rate":42.5,"ref_rss":"-108.50961137704036","w_N":6,"w_NE":10,"w_E":5,"w_SE":2,"w_S":9,"w_SW":3,"w_W":1,"w_NW":1},{"address":"112iH7i4sbZ3yrqVL9bShZUwhsZNTsuNmQVPnHmR9UPcAHP6fH3z","name":"small-peach-deer","lat":"51.55094537201214","lng":"-0.23294187105731692","beac_rate":37.5,"ref_rss":"-103.61336848509212","w_N":1,"w_NE":3,"w_E":1,"w_SE":2,"w_S":11,"w_SW":6,"w_W":0,"w_NW":2},{"address":"11yafriMviwEuspUCaYJWituQHcPgAyvnaPUm5ZRbLZYWMYUsfp","name":"rich-rouge-woodpecker","lat":"51.529741691703144","lng":"-0.07281951038882951","beac_rate":7,"ref_rss":"-88.42068945612239","w_N":26,"w_NE":13,"w_E":16,"w_SE":16,"w_S":21,"w_SW":20,"w_W":16,"w_NW":37},{"address":"112uhqVihJfkHt65wL9nFFtk2NMyz4vPTmDSEmDVygmtTKvWPMRk","name":"orbiting-cyan-wolf","lat":"51.56777786411011","lng":"-0.13836439190505487","beac_rate":9,"ref_rss":"-116.85640801901334","w_N":37,"w_NE":7,"w_E":0,"w_SE":2,"w_S":3,"w_SW":8,"w_W":10,"w_NW":32},{"address":"11LaMtjzFsjRo54ggwCTYajVqq7RccswaW7vyT87wN38K2L4ont","name":"original-jade-trout","lat":"51.54631418178182","lng":"-0.09588843457053144","beac_rate":20.5,"ref_rss":"-119.30548811726517","w_N":20,"w_NE":4,"w_E":1,"w_SE":6,"w_S":9,"w_SW":4,"w_W":3,"w_NW":7},{"address":"112KYvXXpZpSGzSvvuGmLT4kbKZ4xHL5p9KgefDxtbwaSYegdBQT","name":"tall-candy-falcon","lat":"51.506602216365955","lng":"-0.2563345391748794","beac_rate":14,"ref_rss":"-97.23249797962144","w_N":65,"w_NE":7,"w_E":3,"w_SE":4,"w_S":7,"w_SW":4,"w_W":7,"w_NW":31},{"address":"112BxRZbCKqN9sLM12oR9zjzB7FttzSN43ES3YUbdDv8T3HCxVCK","name":"tart-pastel-seal","lat":"51.485507789045116","lng":"-0.13598271277174134","beac_rate":16,"ref_rss":"-101.96686687082048","w_N":23,"w_NE":7,"w_E":14,"w_SE":19,"w_S":26,"w_SW":7,"w_W":6,"w_NW":19},{"address":"11dvwQgbYCVxEidyZ13Thj46tNYdYbynrWTVvqdC4Ttj7DamDts","name":"trendy-ginger-starling","lat":"51.4622035185546","lng":"-0.22552730416113473","beac_rate":2.5,"ref_rss":"-92.887654699589","w_N":2,"w_NE":0,"w_E":1,"w_SE":4,"w_S":0,"w_SW":1,"w_W":0,"w_NW":3},{"address":"11UfxcgVC5bqGWpBypXabrcnaZ4qdXgXyMZRpKdjZYcxHEvkAs2","name":"radiant-cornflower-bear","lat":"51.41601583776363","lng":"-0.07537930325273315","beac_rate":22.5,"ref_rss":"-124.31935231497104","w_N":21,"w_NE":6,"w_E":6,"w_SE":7,"w_S":10,"w_SW":1,"w_W":1,"w_NW":5},{"address":"1128eztchdNJ8Yxr8tTbE1MC7yUDekBnwkRnHYhHXgcJpSEzLmkJ","name":"icy-chrome-rabbit","lat":"51.41727945412143","lng":"-0.18841145895892228","beac_rate":16.5,"ref_rss":"-92.05237286848153","w_N":5,"w_NE":7,"w_E":8,"w_SE":5,"w_S":3,"w_SW":3,"w_W":0,"w_NW":1},{"address":"1128FxW9pe26E5y3WN8NSuV4RbqJ9ggUK1XVkLv6daoFW9hAwdgU","name":"sparkly-mercurial-haddock","lat":"51.51371999087745","lng":"-0.14246709109694844","beac_rate":12.5,"ref_rss":"-100.8623837347232","w_N":19,"w_NE":9,"w_E":7,"w_SE":2,"w_S":5,"w_SW":2,"w_W":2,"w_NW":18},{"address":"112VzEa7yH7QCsopoDbGQooya8wVayH1mY5DREhJ1Vj4oF1pDDQH","name":"stable-honeysuckle-crane","lat":"51.51637220457267","lng":"-0.32409292859648087","beac_rate":32,"ref_rss":"-113.43736882840405","w_N":1,"w_NE":0,"w_E":0,"w_SE":2,"w_S":0,"w_SW":0,"w_W":1,"w_NW":2},{"address":"11tyShjWykms4D8AVGz8UbfR1CUtDzrQHVji5vTk3YtyB87jiCs","name":"fierce-chiffon-carp","lat":"51.498999201954256","lng":"0.026623695800559278","beac_rate":29,"ref_rss":"-124.38080673163918","w_N":2,"w_NE":3,"w_E":2,"w_SE":2,"w_S":6,"w_SW":1,"w_W":2,"w_NW":3},{"address":"11ioDBGDhxgrRFLpWJStTSLPNsh3fivdG2vAe1NZzqmrihFVrCe","name":"precise-turquoise-hamster","lat":"51.486540589771266","lng":"-0.21344406701499452","beac_rate":22.5,"ref_rss":"-108.63894337279669","w_N":4,"w_NE":4,"w_E":1,"w_SE":3,"w_S":11,"w_SW":5,"w_W":0,"w_NW":8},{"address":"11TmA4SY1JT1KpnHTMVNANRQ6JbPjABcxb9BwX6UM4R4Uogu122","name":"fast-chrome-deer","lat":"51.46851576769679","lng":"-0.03861723245858322","beac_rate":26.5,"ref_rss":"-116.98301847580022","w_N":20,"w_NE":12,"w_E":3,"w_SE":6,"w_S":0,"w_SW":0,"w_W":4,"w_NW":1},{"address":"1167cD6JcYoMgxUh8mYawobkD37aXwkpsNtdTrmMx9SXKDNJuh2","name":"creamy-grape-cricket","lat":"51.530402834518306","lng":"-0.21753860249337653","beac_rate":51,"ref_rss":"-107.68915132661292","w_N":7,"w_NE":2,"w_E":0,"w_SE":1,"w_S":0,"w_SW":0,"w_W":1,"w_NW":0},{"address":"11FBStqaiqr3xKZ1s4u9edF8XotvFNe6vhWprfvHzAxqQ7mArqR","name":"real-blush-seagull","lat":"51.49912434484032","lng":"-0.10830225730536909","beac_rate":21,"ref_rss":"-103.23570023295854","w_N":68,"w_NE":11,"w_E":10,"w_SE":17,"w_S":15,"w_SW":22,"w_W":28,"w_NW":58},{"address":"11gzj9AGqCfzCpTRdHy8YuozB2DNwvknxeBTSBSnKrBW2qedHdt","name":"modern-mint-shrimp","lat":"51.48475436675193","lng":"0.0923877583340222","beac_rate":4.5,"ref_rss":"-56.090785143590814","w_N":2,"w_NE":0,"w_E":2,"w_SE":42,"w_S":49,"w_SW":4,"w_W":0,"w_NW":1},{"address":"112bXjfLrFrgM3uivL5HJVRFDGEqLMwseXpoaqtafFhFSZrPnHWn","name":"restless-blood-starling","lat":"51.536994036959136","lng":"-0.10339610497598482","beac_rate":16.5,"ref_rss":"-114.8768219635423","w_N":31,"w_NE":4,"w_E":8,"w_SE":6,"w_S":8,"w_SW":3,"w_W":3,"w_NW":14},{"address":"11ZnrnTTfJY9uQyUErrvqnFeUUXRwVWcdpUuhhMUmf22PHnqpo","name":"amateur-orchid-robin","lat":"51.622421503918225","lng":"-0.022658723497337666","beac_rate":14.5,"ref_rss":"-94.78333136219807","w_N":9,"w_NE":5,"w_E":0,"w_SE":0,"w_S":1,"w_SW":6,"w_W":4,"w_NW":9},{"address":"11qkMCNbcsWzVdXMxaevLWAakxMo5iuBqTaEwjBXjZ6qBnpq2c4","name":"upbeat-macaroon-mammoth","lat":"51.50008172094758","lng":"-0.23738343383084515","beac_rate":38.5,"ref_rss":"-107.18269854748151","w_N":16,"w_NE":14,"w_E":8,"w_SE":11,"w_S":11,"w_SW":6,"w_W":6,"w_NW":8},{"address":"11pBF8QfVDAx1uejX5aa9f5QqXsqqtiD6FUpNQEKwT4S5Xmw1vs","name":"sticky-syrup-wallaby","lat":"51.491223338762424","lng":"-0.14340497746106695","beac_rate":12,"ref_rss":"-111.8933238325103","w_N":10,"w_NE":2,"w_E":0,"w_SE":0,"w_S":3,"w_SW":1,"w_W":4,"w_NW":16},{"address":"1123nCBpteedx3vAreiruJTfBFhok9tB8kpEPkmdbFDLRfRmLJm2","name":"calm-canvas-goldfish","lat":"51.540659961782445","lng":"-0.19023488078793294","beac_rate":7,"ref_rss":"-126.08399849516678","w_N":0,"w_NE":0,"w_E":0,"w_SE":2,"w_S":1,"w_SW":2,"w_W":0,"w_NW":0},{"address":"112JkyygmxCUh5oH9zv9uTTrfu9HARtaRm1K17Wkk9PUvVSSpgJZ","name":"mean-burlap-cod","lat":"51.395278245301206","lng":"-0.08248280521724706","beac_rate":6.5,"ref_rss":"-73.54736579404725","w_N":0,"w_NE":1,"w_E":0,"w_SE":0,"w_S":0,"w_SW":1,"w_W":0,"w_NW":0},{"address":"11doFWpkNsyrkh1JCtXF7Uf4L6RpRVv9go6dzwVcwekmpfm2QzV","name":"dizzy-walnut-millipede","lat":"51.5410815314494","lng":"-0.22636660297502956","beac_rate":27,"ref_rss":"-104.87021406856137","w_N":5,"w_NE":1,"w_E":1,"w_SE":0,"w_S":5,"w_SW":2,"w_W":2,"w_NW":12},{"address":"112AtxrcpJc6NGKBj14PFAhRKCEfGd1DrqzENtiQ1awr7AXqj2v2","name":"delightful-quartz-perch","lat":"51.45054036721306","lng":"0.06472317820902442","beac_rate":5.5,"ref_rss":"-54.06726822669838","w_N":1,"w_NE":1,"w_E":4,"w_SE":16,"w_S":66,"w_SW":1,"w_W":3,"w_NW":0},{"address":"1124zbWUdfgqyv1rZXJ8MKRA9NbzzfVAq5UtRXembvBTF4PsKw2v","name":"swift-gunmetal-osprey","lat":"51.53651003018258","lng":"-0.14327140475669128","beac_rate":41,"ref_rss":"-118.09447913588701","w_N":5,"w_NE":8,"w_E":3,"w_SE":3,"w_S":6,"w_SW":1,"w_W":1,"w_NW":6},{"address":"11D4TVZ8vRW5nnPe621gEcX8EXmHfRtXvWJJfzQAJrDGpbSgWPY","name":"strong-hazel-starfish","lat":"51.519739106285165","lng":"-0.09640328480306577","beac_rate":6,"ref_rss":"-83.55209078649946","w_N":33,"w_NE":14,"w_E":11,"w_SE":15,"w_S":25,"w_SW":35,"w_W":18,"w_NW":17},{"address":"112ETFkGHW2iyTjwa7j2k6vi6CXDZj4ho9b9WauiV5sAvWhaU41C","name":"muscular-pearl-bull","lat":"51.51475098799602","lng":"-0.21319596148981879","beac_rate":32.5,"ref_rss":"-104.72928797066461","w_N":10,"w_NE":5,"w_E":2,"w_SE":2,"w_S":8,"w_SW":6,"w_W":7,"w_NW":5},{"address":"112PW59wLFq25HRGQyG4mUndd4MGi3vEBetAHoRojT1VcHUTXDkw","name":"loud-pine-turtle","lat":"51.50579047677574","lng":"-0.21615535687851659","beac_rate":11.5,"ref_rss":"-91.47901954298325","w_N":33,"w_NE":15,"w_E":7,"w_SE":6,"w_S":17,"w_SW":12,"w_W":9,"w_NW":20},{"address":"112LVkkvaZmStrAy3Wxxe95dAuZbeHWmjQdc1KeAdRuxz8GZNLuQ","name":"quiet-chiffon-lynx","lat":"51.515055217996256","lng":"-0.23435745602457167","beac_rate":11.5,"ref_rss":"-110.59388427204166","w_N":31,"w_NE":8,"w_E":2,"w_SE":4,"w_S":8,"w_SW":9,"w_W":11,"w_NW":16},{"address":"112jEroWfpdnuhXNH17ALZjbsetcuZftd27pY2bMYZMMMnABcbiy","name":"warm-plastic-lemur","lat":"51.556786316955794","lng":"-0.2445274495708005","beac_rate":17,"ref_rss":"-96.85706225610639","w_N":29,"w_NE":4,"w_E":3,"w_SE":6,"w_S":5,"w_SW":17,"w_W":17,"w_NW":16},{"address":"1128kzYeT2spvJJtQkPC9vSHryxahSrqL56Ch5PJZCMABZqHeTN7","name":"pet-white-sealion","lat":"51.54666686428897","lng":"-0.1540489766070957","beac_rate":7,"ref_rss":"-81.84324259417303","w_N":62,"w_NE":8,"w_E":3,"w_SE":2,"w_S":7,"w_SW":19,"w_W":16,"w_NW":50},{"address":"112BspwgQffiGa7ycs8QzVN8AStx2YSC43gm7SWJXzdhu4bWyaHZ","name":"little-amethyst-armadillo","lat":"51.521499656132896","lng":"-0.33914179725722976","beac_rate":20.5,"ref_rss":"-95.09997209392296","w_N":2,"w_NE":1,"w_E":1,"w_SE":0,"w_S":0,"w_SW":0,"w_W":0,"w_NW":0},{"address":"112iwDUtYuET2emXhqbzqzyygBrZgezZphPmgEVKcuaBjhZLH4cD","name":"decent-sepia-platypus","lat":"51.514423271530994","lng":"-0.06960340231832661","beac_rate":22,"ref_rss":"-103.05438191452924","w_N":7,"w_NE":5,"w_E":8,"w_SE":4,"w_S":1,"w_SW":0,"w_W":0,"w_NW":4},{"address":"112dRJJ6pC7EmRLxDnxYAXW2yiRAmW8aNyYDXfaYbCESwDBJZDSF","name":"smooth-mulberry-mole","lat":"51.48500424728364","lng":"-0.08366289897491956","beac_rate":37.5,"ref_rss":"-121.8602286678405","w_N":3,"w_NE":2,"w_E":0,"w_SE":0,"w_S":4,"w_SW":8,"w_W":3,"w_NW":2},{"address":"11nGMyFbb9Hsj3iMKg8ee6PoW2ky1gVUFZ25WSpR9F7Yo8ZrMLC","name":"handsome-leather-rook","lat":"51.485092609015155","lng":"-0.1797153820711225","beac_rate":22,"ref_rss":"-112.6550571686934","w_N":4,"w_NE":1,"w_E":3,"w_SE":2,"w_S":2,"w_SW":6,"w_W":3,"w_NW":3},{"address":"1128KM6YGrDFSf5id3M97WsAkEHB8fSK6bfzUxvCQ9okzN5PRn1W","name":"stale-hazel-bird","lat":"51.457656345074966","lng":"-0.14254728836456285","beac_rate":7,"ref_rss":"-123.01766731076452","w_N":25,"w_NE":8,"w_E":5,"w_SE":9,"w_S":1,"w_SW":1,"w_W":0,"w_NW":4},{"address":"11pbVyatoEKm1JXKo5PJ1eEG9wdUcgHbp52Xu8H4am3G56jMocb","name":"quaint-mahogany-nightingale","lat":"51.5130265251462","lng":"-0.19802763625091344","beac_rate":50.5,"ref_rss":"-111.22220397281056","w_N":12,"w_NE":6,"w_E":7,"w_SE":3,"w_S":15,"w_SW":11,"w_W":4,"w_NW":7},{"address":"11w4V556MGSPrS7uc5hAh9pmmyPyJ5te7H2ZBb8JYPoG1thFCdY","name":"innocent-daisy-sawfish","lat":"51.51731465777144","lng":"-0.15594521539286185","beac_rate":20.5,"ref_rss":"-114.36100740199932","w_N":0,"w_NE":0,"w_E":0,"w_SE":1,"w_S":1,"w_SW":0,"w_W":0,"w_NW":0},{"address":"11KsZdK3NXV8kYzeA9e3P3kSYTFp6LVe1krn9n4F4MG7WTUZSz3","name":"magnificent-orange-llama","lat":"51.42343384009723","lng":"-0.06009006943787525","beac_rate":48,"ref_rss":"-122.98317326160895","w_N":28,"w_NE":14,"w_E":6,"w_SE":3,"w_S":14,"w_SW":1,"w_W":0,"w_NW":0},{"address":"118DKjT5ZyfatiLvB1y6fKZHvGkjMbmisJt7kkZebpvXtF8fRX4","name":"main-felt-haddock","lat":"51.609117513406524","lng":"-0.03024442765336463","beac_rate":18.5,"ref_rss":"-114.43945615033965","w_N":2,"w_NE":4,"w_E":0,"w_SE":2,"w_S":11,"w_SW":13,"w_W":12,"w_NW":2},{"address":"112dCsx689CuvAb6mv4CC4CejTFDmiP2BFUE63iwJChpLBHuH8qe","name":"fancy-turquoise-goat","lat":"51.563810444843526","lng":"0.04389318447186593","beac_rate":50,"ref_rss":"-105.53394228657157","w_N":0,"w_NE":0,"w_E":0,"w_SE":0,"w_S":3,"w_SW":3,"w_W":3,"w_NW":6},{"address":"112XRYmPgXrumuK5fPheptGNknYN2w9c7tEWZFYEoWU7QbCHuqQn","name":"passive-flaxen-owl","lat":"51.502059863981216","lng":"-0.0085719731472083","beac_rate":22,"ref_rss":"-103.80344763457826","w_N":19,"w_NE":5,"w_E":4,"w_SE":10,"w_S":27,"w_SW":26,"w_W":19,"w_NW":22},{"address":"11n8A2wdS5APEbfMhQUiHbvY6yVgzJpo3cM3zSw7Vw1ZPzHFBxT","name":"salty-tangelo-panda","lat":"51.43880504915516","lng":"-0.1045074549154837","beac_rate":36,"ref_rss":"-81.15809383964726","w_N":0,"w_NE":0,"w_E":2,"w_SE":4,"w_S":2,"w_SW":1,"w_W":0,"w_NW":3},{"address":"112LiYPP5cBima4MxMzUc9J9QtsM6HcHUKCdcMK7tZwv78fmzppC","name":"radiant-charcoal-eagle","lat":"51.47270640607295","lng":"-0.032132552396806076","beac_rate":14,"ref_rss":"-117.09757309469477","w_N":17,"w_NE":18,"w_E":9,"w_SE":11,"w_S":22,"w_SW":3,"w_W":3,"w_NW":4},{"address":"11Deg9U3kKs2cbcM9kNXecp9ZFv29dRpH1eVXrQ6XNMLhZK3z3C","name":"immense-mossy-copperhead","lat":"51.484669648059906","lng":"-0.12605739280592848","beac_rate":12.5,"ref_rss":"-101.26301675648699","w_N":52,"w_NE":9,"w_E":1,"w_SE":2,"w_S":13,"w_SW":9,"w_W":16,"w_NW":40},{"address":"112bALYiftyn3b6KDi2NAWvardYptAjb7ZmDo2DQJGJwZFLG8EMU","name":"small-ginger-whale","lat":"51.54047536568233","lng":"-0.19419630734323806","beac_rate":29.5,"ref_rss":"-100.79224522031313","w_N":3,"w_NE":0,"w_E":3,"w_SE":3,"w_S":5,"w_SW":3,"w_W":2,"w_NW":1},{"address":"11d6mATxKEA9oQ4VPmRABNY43xYAcLn4JPLng6uCgmXfy1Zw6Fz","name":"macho-porcelain-monkey","lat":"51.49200828158668","lng":"-0.16142119906148217","beac_rate":39,"ref_rss":"-99.8494137629741","w_N":9,"w_NE":6,"w_E":5,"w_SE":5,"w_S":2,"w_SW":11,"w_W":1,"w_NW":3},{"address":"11wjYmY4zGnZLhFJuCsARLWu1vn8nSR7UxXu72cUR9PDcJRBRTi","name":"lone-scarlet-terrier","lat":"51.57160769511161","lng":"-0.07708191725160056","beac_rate":34.5,"ref_rss":"-125.43759516006867","w_N":1,"w_NE":1,"w_E":0,"w_SE":0,"w_S":5,"w_SW":1,"w_W":1,"w_NW":1},{"address":"11WqNKrzZ4Q7JPNy6zycDabgLWmhdb1Gnc7FZ95fBzMzFjS3ZVF","name":"savory-charcoal-lion","lat":"51.413067758740446","lng":"-0.07241734253113535","beac_rate":30,"ref_rss":"-118.55535837732285","w_N":5,"w_NE":4,"w_E":6,"w_SE":8,"w_S":9,"w_SW":1,"w_W":1,"w_NW":1},{"address":"112UuVkcg8H7ppZbjjEix8M3PjLzBNAYDF97YyYVvcP1J97euWJk","name":"great-sky-panther","lat":"51.535304433371216","lng":"-0.14711973632618602","beac_rate":35.5,"ref_rss":"-120.67816885006037","w_N":16,"w_NE":9,"w_E":4,"w_SE":5,"w_S":3,"w_SW":4,"w_W":0,"w_NW":8},{"address":"11XK451zm1FX1FwrAiuQqFj5BaUBQPtbgq8bjBMHBhjxNX323Fs","name":"itchy-sage-tardigrade","lat":"51.59925381866099","lng":"-0.04535285780771779","beac_rate":56.5,"ref_rss":"-111.58043536444934","w_N":2,"w_NE":5,"w_E":0,"w_SE":2,"w_S":15,"w_SW":5,"w_W":5,"w_NW":8},{"address":"1185gEkcKLhW6yFFGtTTZXq1ctExv5et2Hc4pnhQYMfmPivLrv6","name":"unique-chocolate-woodpecker","lat":"51.52361903257773","lng":"-0.058873773667800895","beac_rate":13,"ref_rss":"-111.13136533757582","w_N":4,"w_NE":9,"w_E":5,"w_SE":13,"w_S":18,"w_SW":4,"w_W":1,"w_NW":6},{"address":"112Ck7AUsspCPs4P9cw1msABGzDiEbBp3kSXZbZP783tx1X1g69r","name":"mysterious-dijon-fish","lat":"51.47366420664412","lng":"-0.18334965174094817","beac_rate":23,"ref_rss":"-109.57487694457052","w_N":2,"w_NE":2,"w_E":0,"w_SE":4,"w_S":7,"w_SW":7,"w_W":2,"w_NW":1},{"address":"11ZCgcgm53HAmuEsfgfUe3ymM439M8msnKhLVTwKUhqUZq8NeFJ","name":"scruffy-eggshell-unicorn","lat":"51.50829340990152","lng":"-0.06646933075700041","beac_rate":13.5,"ref_rss":"-95.78206052273578","w_N":1,"w_NE":3,"w_E":1,"w_SE":0,"w_S":0,"w_SW":0,"w_W":0,"w_NW":0},{"address":"11Q4qRfHpXjfQXkh6i39JAfKw57PY5Y2jQ7RZYzoD5PZDixLtvE","name":"cheery-lilac-orca","lat":"51.57079628381497","lng":"-0.14679638503326134","beac_rate":9,"ref_rss":"-127.46738665347019","w_N":22,"w_NE":4,"w_E":1,"w_SE":2,"w_S":1,"w_SW":16,"w_W":14,"w_NW":57},{"address":"112gu8XfTBiGUv3eqJYGY8cj8s78ipGmoRZ2AjZUzqDVTNckqXpv","name":"quick-walnut-toad","lat":"51.52240679885717","lng":"0.023068849436310112","beac_rate":7,"ref_rss":"-109.26165930480427","w_N":9,"w_NE":2,"w_E":4,"w_SE":7,"w_S":13,"w_SW":14,"w_W":11,"w_NW":28},{"address":"112FukqWq3F1sHhw9mRUgr8qEM19V8RFbFswEYEMbFQNeEGm3KG9","name":"able-orange-cobra","lat":"51.489774908337566","lng":"-0.14080590154797895","beac_rate":22,"ref_rss":"-104.66560740773528","w_N":4,"w_NE":2,"w_E":1,"w_SE":1,"w_S":1,"w_SW":3,"w_W":5,"w_NW":7},{"address":"112aS1HHKongcHR2KQtMKm5ZsAkmN3ySjP1eY7qnywea4eL5KPR","name":"genuine-ruby-wallaby","lat":"51.487539142612505","lng":"0.08210850397145902","beac_rate":6,"ref_rss":"-45.681051227870455","w_N":9,"w_NE":1,"w_E":5,"w_SE":29,"w_S":43,"w_SW":3,"w_W":4,"w_NW":2},{"address":"112decZPWB417RBC8cHQ9KZUcipnDpqpeMtWMkwsLhXnsFK4QZcA","name":"clumsy-midnight-vulture","lat":"51.52857238266262","lng":"-0.05933546957303832","beac_rate":7,"ref_rss":"-106.17167640386494","w_N":15,"w_NE":13,"w_E":7,"w_SE":18,"w_S":25,"w_SW":21,"w_W":14,"w_NW":12},{"address":"112qyQC9iL3HHdkzrQ2HzW3SGW2bRJ2h66tEyWYox1y8XJymNFXb","name":"jolly-foggy-osprey","lat":"51.51070275572498","lng":"-0.19449098849363863","beac_rate":29.5,"ref_rss":"-115.58727399301256","w_N":8,"w_NE":8,"w_E":8,"w_SE":1,"w_S":10,"w_SW":6,"w_W":1,"w_NW":2},{"address":"112LCHqpJ624rMD8JrJ9Lc2TDwAcWtx8p7R4m1nka4pJRdJ9Z9Tz","name":"genuine-taupe-woodpecker","lat":"51.52052350282294","lng":"-0.09345315004521772","beac_rate":4.5,"ref_rss":"-91.59366145984752","w_N":29,"w_NE":14,"w_E":10,"w_SE":15,"w_S":22,"w_SW":5,"w_W":7,"w_NW":12},{"address":"114WxMAmpXdDQ67kS7wiYY7EhBefFhQug27ZvBPf95aUq8qM4Rg","name":"able-infrared-rabbit","lat":"51.51633449606504","lng":"-0.19556270742048573","beac_rate":32.5,"ref_rss":"-115.86049515745799","w_N":9,"w_NE":2,"w_E":7,"w_SE":3,"w_S":9,"w_SW":10,"w_W":2,"w_NW":6},{"address":"112mtaCKNvEQQboiDHkmrTYj6e9F26JEaKRfVZuiHo6nKPReXuQd","name":"dandy-hotpink-alligator","lat":"51.47376117536346","lng":"-0.219262435720172","beac_rate":19.5,"ref_rss":"-41379.26450112879","w_N":0,"w_NE":0,"w_E":0,"w_SE":0,"w_S":0,"w_SW":0,"w_W":0,"w_NW":4},{"address":"112Dq41GQRSGo89Fa7VBUroQSf5X6zobK1TGD3GnM74jWU6d9pTB","name":"great-silver-lizard","lat":"51.454742689199534","lng":"-0.18511678078986696","beac_rate":12.5,"ref_rss":"-89.20917369755365","w_N":54,"w_NE":48,"w_E":31,"w_SE":38,"w_S":20,"w_SW":5,"w_W":9,"w_NW":12},{"address":"1126U3y22fRTBNWXGxRK7LAqQQ6PbAG1u6SH24gM8Z82eDydCqTS","name":"generous-garnet-orca","lat":"51.52404159843675","lng":"-0.06383631229344382","beac_rate":52,"ref_rss":"-111.46754629809229","w_N":6,"w_NE":6,"w_E":6,"w_SE":7,"w_S":5,"w_SW":4,"w_W":7,"w_NW":7},{"address":"112kWoHkQMNpGZBMjdtztb8TdLfmH4vsJWxazSK2ShpiNvrbt71f","name":"merry-glossy-troll","lat":"51.54917156205525","lng":"-0.267207867588807","beac_rate":5.5,"ref_rss":"-99.92434961916214","w_N":15,"w_NE":3,"w_E":4,"w_SE":0,"w_S":1,"w_SW":2,"w_W":8,"w_NW":14},{"address":"112c8GJSUHZg44x7Hs9XguAK9cTnXttGsbusXXHcpGXkHrdzbmfR","name":"energetic-saffron-marmot","lat":"51.49078048880232","lng":"-0.22570878813601378","beac_rate":20,"ref_rss":"-103.07352903431614","w_N":19,"w_NE":7,"w_E":5,"w_SE":14,"w_S":8,"w_SW":9,"w_W":8,"w_NW":9},{"address":"11jmyHW34B1tiWRPKDxrAmH2sR7pb2dnHiZ9bpGLdQnTLqAu1nx","name":"clumsy-infrared-haddock","lat":"51.48607673062078","lng":"-0.1737173338241353","beac_rate":27,"ref_rss":"-149.4656433318778","w_N":7,"w_NE":0,"w_E":1,"w_SE":4,"w_S":1,"w_SW":2,"w_W":2,"w_NW":0},{"address":"11iaKzxfJu7hWHBy8NcntsaAAq9pW85iG48e5f1oZmfrCv5HsJF","name":"glorious-rainbow-tuna","lat":"51.510223337235516","lng":"-0.20934591257960114","beac_rate":26,"ref_rss":"-114.450772224284","w_N":5,"w_NE":0,"w_E":1,"w_SE":3,"w_S":6,"w_SW":7,"w_W":3,"w_NW":2},{"address":"112ojxF5BcWK4xSxCuxabxhTCqCGuAvZv1adTMfyd9TeGRZAi5Dq","name":"dry-vanilla-blackbird","lat":"51.48145185807348","lng":"-0.17771246529237103","beac_rate":8.5,"ref_rss":"-103.60042032233432","w_N":21,"w_NE":4,"w_E":5,"w_SE":12,"w_S":22,"w_SW":10,"w_W":5,"w_NW":18},{"address":"114nDxKSGR3t5QD2k6iX8RW9dpyUDbHqooC9fkyK6cV5g41pSHA","name":"massive-felt-sparrow","lat":"51.493276176823144","lng":"-0.17136365712288637","beac_rate":21,"ref_rss":"-120.03481711358","w_N":1,"w_NE":0,"w_E":0,"w_SE":2,"w_S":2,"w_SW":2,"w_W":1,"w_NW":3},{"address":"11zRfCQxddKMFZtUBFgua47JY5b94QHaiX5VPwVoNEpfai6niog","name":"cheesy-opaque-vulture","lat":"51.43990022823484","lng":"-0.11006049215579182","beac_rate":29,"ref_rss":"-103.38612624625011","w_N":5,"w_NE":3,"w_E":2,"w_SE":0,"w_S":1,"w_SW":0,"w_W":1,"w_NW":4},{"address":"112DasDRnNyMvPsKLSgeFiNzQBYKvuk2UTk52XUxa9zy1udzdzZX","name":"lively-watermelon-cow","lat":"51.45920664442256","lng":"-0.18689546969052512","beac_rate":29,"ref_rss":"-108.35565783756037","w_N":7,"w_NE":9,"w_E":8,"w_SE":15,"w_S":6,"w_SW":1,"w_W":4,"w_NW":0},{"address":"11rwKKWZhPgTHVGQFGk7WkG26Cr5aYeQLDcNaJg1K4s664VuhvU","name":"immense-quartz-duck","lat":"51.53137699046761","lng":"-0.23252715930490991","beac_rate":51.5,"ref_rss":"-109.75826338020568","w_N":2,"w_NE":0,"w_E":0,"w_SE":2,"w_S":6,"w_SW":1,"w_W":4,"w_NW":2},{"address":"1128VHhK1pdxb4Ug2AjJruP9dAGBxgNB1vKtu6PYoQ5pvhjLcBTn","name":"wobbly-cream-sloth","lat":"51.539514114521225","lng":"-0.052940534158561224","beac_rate":37.5,"ref_rss":"-130.9291645526958","w_N":3,"w_NE":0,"w_E":0,"w_SE":1,"w_S":0,"w_SW":0,"w_W":2,"w_NW":3},{"address":"11vBdRfWzQYqEx21V7b3pFmFG7Xjo3k3XG8zxQNUWr1uJfVnfZD","name":"young-coal-cobra","lat":"51.49519578253803","lng":"0.09749227875593067","beac_rate":5.5,"ref_rss":"-62.02303810364627","w_N":0,"w_NE":1,"w_E":0,"w_SE":24,"w_S":81,"w_SW":14,"w_W":3,"w_NW":2},{"address":"11jCqGRECTUFagwu35HN5iCnqd6Da5aCgZpH6cc5EaESyhS7KEF","name":"shaggy-maroon-manatee","lat":"51.489816712908365","lng":"-0.2208901150393083","beac_rate":51,"ref_rss":"-114.30141040802518","w_N":10,"w_NE":5,"w_E":2,"w_SE":4,"w_S":9,"w_SW":6,"w_W":3,"w_NW":7},{"address":"112YoyMt9QrpdQcw1BtYxd4u58xPC7rgTFExjyyMSEyKmEQoseXq","name":"joyful-plastic-sardine","lat":"51.484324541808085","lng":"-0.2122231753555456","beac_rate":44.5,"ref_rss":"-111.26515631475073","w_N":12,"w_NE":6,"w_E":12,"w_SE":7,"w_S":11,"w_SW":6,"w_W":0,"w_NW":11},{"address":"11tUGLmoMeW2TNbx1NgEztqvoVKgEiHcunTsH4R2e6HCoqGXzD4","name":"zany-mercurial-dove","lat":"51.5119592390283","lng":"-0.2735219218872634","beac_rate":30.5,"ref_rss":"-117.33523936347957","w_N":7,"w_NE":2,"w_E":1,"w_SE":0,"w_S":2,"w_SW":1,"w_W":3,"w_NW":8},{"address":"11etpLi2wLA6Jjxg9pvZDggFWctA6BUm1zdmRT5fT7oCkvwhyFE","name":"dancing-golden-finch","lat":"51.52757803829791","lng":"-0.19927616171589763","beac_rate":46,"ref_rss":"-105.78360447985874","w_N":5,"w_NE":2,"w_E":2,"w_SE":4,"w_S":0,"w_SW":2,"w_W":0,"w_NW":2},{"address":"112h269SvHNVgd52hHcMkeMdvE8hfj6WN9HEwJspPgC4bFN1iWYr","name":"radiant-bamboo-perch","lat":"51.52320582399367","lng":"-0.2612145779420616","beac_rate":15.5,"ref_rss":"-100.49499563629841","w_N":10,"w_NE":6,"w_E":2,"w_SE":3,"w_S":2,"w_SW":0,"w_W":1,"w_NW":1},{"address":"114E3E92r3UTZzis39oKkTW3ocxAGVzwMT4TT8Aj6FQ8R5jsGkj","name":"damaged-rusty-octopus","lat":"51.54177741362695","lng":"-0.26334556481174337","beac_rate":24,"ref_rss":"-101.4018348271478","w_N":4,"w_NE":2,"w_E":1,"w_SE":1,"w_S":1,"w_SW":1,"w_W":3,"w_NW":0},{"address":"11MW1vUL8naYU1zQV6UwCGsaTyXrA9E4iTaoe7DaCJPBJLCMG23","name":"zany-orange-camel","lat":"51.470019486694284","lng":"-0.12342419136797443","beac_rate":6,"ref_rss":"-106.00748919690429","w_N":37,"w_NE":18,"w_E":6,"w_SE":10,"w_S":13,"w_SW":4,"w_W":8,"w_NW":8},{"address":"1195fCLUUnvjFnnkFQJK6zXX1AMq3fCLeeGd533S3q83SegCA6e","name":"cool-pistachio-buffalo","lat":"51.421429758635064","lng":"-0.08936585919330449","beac_rate":14,"ref_rss":"-98.59634679380437","w_N":8,"w_NE":59,"w_E":37,"w_SE":5,"w_S":3,"w_SW":0,"w_W":0,"w_NW":0},{"address":"11wsS23G2SXfx3c8AW37LTVoPZgsJ3HdKkhjjYtRVDmyQk8rB43","name":"crazy-taffy-starfish","lat":"51.502381233090986","lng":"-0.07629384504180857","beac_rate":40,"ref_rss":"-101.16625996043446","w_N":2,"w_NE":6,"w_E":1,"w_SE":1,"w_S":1,"w_SW":2,"w_W":3,"w_NW":3},{"address":"112jmcS1DAMKBGzw8tJkTn4E1kr9myJELkWDVJ6D4hmDb6UbRbbj","name":"gentle-jetblack-quail","lat":"51.48261236685621","lng":"-0.14588692282274612","beac_rate":27,"ref_rss":"-111.26155720361619","w_N":8,"w_NE":5,"w_E":1,"w_SE":0,"w_S":1,"w_SW":2,"w_W":0,"w_NW":2},{"address":"113amECRiKvkjRUyxYxW89NkfxgnngdeiK9qZUk2LN5Sr9NqXuM","name":"sharp-gingerbread-halibut","lat":"51.5147020283692","lng":"-0.027866218524094703","beac_rate":19.5,"ref_rss":"-85.08139261944302","w_N":8,"w_NE":1,"w_E":2,"w_SE":6,"w_S":3,"w_SW":2,"w_W":2,"w_NW":4},{"address":"114QYNB13FeicS4D6ngezyxkPksvv6xz4dgEzW64r112TXc11Wo","name":"silly-glossy-dachshund","lat":"51.394043613781534","lng":"-0.06359277067653873","beac_rate":39.5,"ref_rss":"-125.04092876307462","w_N":0,"w_NE":0,"w_E":8,"w_SE":14,"w_S":6,"w_SW":0,"w_W":0,"w_NW":0},{"address":"1129gDtdrYvTAM7hxfWWXbwP2rFo3RgsHHEdVnxyFZqom36J1B8j","name":"mini-lime-canary","lat":"51.499523473875016","lng":"-0.19284616165500065","beac_rate":64.5,"ref_rss":"-108.97131664639917","w_N":3,"w_NE":3,"w_E":1,"w_SE":2,"w_S":12,"w_SW":6,"w_W":3,"w_NW":4},{"address":"112UHoTS76JroL1Fp6ywfkxgKUFhXPxcRPZi3VhFJGSU1cmv26yX","name":"raspy-pink-mantis","lat":"51.490248156128125","lng":"-0.16203167790680817","beac_rate":29,"ref_rss":"-94.81643206441262","w_N":26,"w_NE":3,"w_E":1,"w_SE":4,"w_S":29,"w_SW":14,"w_W":3,"w_NW":11},{"address":"112PDaPbzDFEDe5dEc1iTFFAc5HUZQNELNBnbLmkNCMRebBMvKa7","name":"small-raisin-scorpion","lat":"51.456028562362306","lng":"-0.03606557949170469","beac_rate":25.5,"ref_rss":"-113.65131518781551","w_N":21,"w_NE":1,"w_E":3,"w_SE":3,"w_S":1,"w_SW":1,"w_W":2,"w_NW":8},{"address":"112SDZuBoLYKH9rWhgKFf2KWFrpFQuD4X7gyLh1KFDhikbfB75uY","name":"wide-lava-wren","lat":"51.48137083377817","lng":"-0.18059927349799668","beac_rate":11.5,"ref_rss":"-99.31736737974728","w_N":13,"w_NE":20,"w_E":17,"w_SE":29,"w_S":28,"w_SW":15,"w_W":2,"w_NW":5},{"address":"11meYmBMJZCNG56C9wRmVUnW69bjy32TUSVfbVr8htg4pvuagvS","name":"cool-carbon-crab","lat":"51.499538912116165","lng":"-0.18789176488392834","beac_rate":34.5,"ref_rss":"-103.74874309960074","w_N":11,"w_NE":7,"w_E":6,"w_SE":6,"w_S":18,"w_SW":14,"w_W":15,"w_NW":22},{"address":"112eT6REany57JVEtcxqN1bASnznFp1wUzcEL3Tkmn9bbhkpMFbv","name":"active-fiery-osprey","lat":"51.54679474857804","lng":"-0.010298667795502033","beac_rate":4,"ref_rss":"-94.0126568265941","w_N":7,"w_NE":5,"w_E":4,"w_SE":7,"w_S":41,"w_SW":32,"w_W":5,"w_NW":8},{"address":"11a4vYgie9RprXz1cmzPPoVReUK7hdiAmoRoxJGVQQPoeU7YMmm","name":"short-syrup-woodpecker","lat":"51.51803548110004","lng":"-0.06392381249088241","beac_rate":42,"ref_rss":"-109.53442845081305","w_N":6,"w_NE":15,"w_E":12,"w_SE":13,"w_S":11,"w_SW":4,"w_W":9,"w_NW":11},{"address":"11rLvP24uT17hwhyw1TowLFGin9P3dNjCLXWYhvwSFUx7sge8g9","name":"rich-lilac-eagle","lat":"51.61338449611308","lng":"-0.20574503753813772","beac_rate":36,"ref_rss":"-126.84818237639011","w_N":15,"w_NE":0,"w_E":0,"w_SE":1,"w_S":0,"w_SW":2,"w_W":0,"w_NW":0},{"address":"112RiQbKy7ZkqkQYtdN6hnp6zTRnqDsAGfWs8jsbHhqfA16wy6NS","name":"muscular-boysenberry-kitten","lat":"51.51471781558547","lng":"-0.2644303908358821","beac_rate":59.5,"ref_rss":"-113.90448314978647","w_N":20,"w_NE":2,"w_E":2,"w_SE":3,"w_S":2,"w_SW":2,"w_W":4,"w_NW":13},{"address":"112FLCf6C8gdXVvZFWEj3SLdb98Tua6imSLaqMHMNNMbE1NYCzi8","name":"quick-golden-starfish","lat":"51.50246660260167","lng":"-0.2750521958824155","beac_rate":23.5,"ref_rss":"-116.13330703212442","w_N":58,"w_NE":5,"w_E":4,"w_SE":3,"w_S":7,"w_SW":0,"w_W":6,"w_NW":32},{"address":"112qQK7enMfjNnbtfk5JpAF15R51rSNWH23DysSw6wkUpCaP3Etp","name":"plain-cider-leopard","lat":"51.541184320244206","lng":"-0.17314475227335288","beac_rate":64,"ref_rss":"-126.22884138784835","w_N":13,"w_NE":1,"w_E":0,"w_SE":0,"w_S":6,"w_SW":2,"w_W":0,"w_NW":9},{"address":"11QvhSZx7BRiz6wFdnNYGXvpL51eVVwxYxaQrDX9VvmU6rgYAQR","name":"wild-lemonade-narwhal","lat":"51.453650112824","lng":"-0.1518382821265072","beac_rate":25.5,"ref_rss":"-155.6352305425923","w_N":13,"w_NE":3,"w_E":1,"w_SE":0,"w_S":0,"w_SW":0,"w_W":1,"w_NW":0},{"address":"11gTLn4BHucTbJ8NvcdpmkeK9fQmpJiP7kDyCQExykqc3AhNfpL","name":"upbeat-syrup-hamster","lat":"51.527573977458175","lng":"-0.19588836935055118","beac_rate":27,"ref_rss":"-101.1910567066716","w_N":12,"w_NE":4,"w_E":4,"w_SE":5,"w_S":10,"w_SW":16,"w_W":7,"w_NW":5},{"address":"112MpmNeo2fXHULGL7LtoyYv4Cn4vFA4DwWFUwrtv1Xjd7ryiXXb","name":"polite-maroon-lynx","lat":"51.47759526618732","lng":"-0.11992131898957302","beac_rate":34.5,"ref_rss":"-106.02156026494569","w_N":28,"w_NE":9,"w_E":4,"w_SE":10,"w_S":15,"w_SW":5,"w_W":8,"w_NW":8},{"address":"11vGPkHtgqFh6EN9qm4RGmmdfZXvfHRL6kaZPHiwYrPs9WTS8xt","name":"shiny-walnut-loris","lat":"51.50917798477766","lng":"-0.19816380527984467","beac_rate":2,"ref_rss":"-113.32244221469493","w_N":25,"w_NE":10,"w_E":5,"w_SE":2,"w_S":5,"w_SW":4,"w_W":0,"w_NW":14},{"address":"112ZtAk7J1JCcdxCfkSygvWHd6LTkFzjuFvHHG2gYGJvcuDV2Bnq","name":"hidden-foggy-moose","lat":"51.47391284584201","lng":"-0.09424985032443493","beac_rate":25.5,"ref_rss":"-116.971869780143","w_N":4,"w_NE":2,"w_E":0,"w_SE":4,"w_S":3,"w_SW":5,"w_W":5,"w_NW":0},{"address":"11shG89WZ8SeT41voayU5nQ43tvkRGVtTsQrjJBRvwqdhXRoxnY","name":"powerful-emerald-terrier","lat":"51.46550495048452","lng":"-0.15992774026239168","beac_rate":34,"ref_rss":"-113.61993231063364","w_N":3,"w_NE":12,"w_E":2,"w_SE":12,"w_S":3,"w_SW":1,"w_W":0,"w_NW":0},{"address":"11FqKvNPF9xkxM2wyT6SGRHAWFK4gvNnE21b2qu4u5cCMXbyTmF","name":"short-blue-lynx","lat":"51.513278503087825","lng":"-0.17176927423810132","beac_rate":39.5,"ref_rss":"-115.1737946095111","w_N":3,"w_NE":2,"w_E":1,"w_SE":3,"w_S":6,"w_SW":2,"w_W":2,"w_NW":3},{"address":"112rKArS89SWG3igQuS7vRLokLYHqXjGaQJzZtYLgZZg6YRfQes6","name":"breezy-tartan-alligator","lat":"51.49991204927344","lng":"-0.3048126128157692","beac_rate":10,"ref_rss":"-107.40300961562357","w_N":74,"w_NE":22,"w_E":1,"w_SE":3,"w_S":5,"w_SW":0,"w_W":1,"w_NW":10},{"address":"112hsvHz1gCGQNhN4KBLXGKqNUC28YjecLRGYBqZmvX3LTaJyzRJ","name":"fresh-paisley-moth","lat":"51.48768650538076","lng":"-0.14033482791785648","beac_rate":9,"ref_rss":"-105.72365546858153","w_N":17,"w_NE":6,"w_E":3,"w_SE":1,"w_S":6,"w_SW":3,"w_W":4,"w_NW":14},{"address":"112GHa2cpR4CQDLVQgN7jmb39Wvbk3hRpGjxHAMV1ixhyVVmWt1F","name":"swift-raisin-turtle","lat":"51.597724665722495","lng":"-0.015657203786546163","beac_rate":47,"ref_rss":"-114.48742114981907","w_N":0,"w_NE":1,"w_E":3,"w_SE":3,"w_S":5,"w_SW":4,"w_W":1,"w_NW":2},{"address":"112tKoc6sJLByScLAYeqBeVSCYNrcAkV9SLtwXXYKjiRQS8qpeju","name":"small-ceramic-terrier","lat":"51.56138481507877","lng":"-0.2260567725338652","beac_rate":4,"ref_rss":"-95.17731730003459","w_N":16,"w_NE":2,"w_E":1,"w_SE":3,"w_S":5,"w_SW":16,"w_W":15,"w_NW":24},{"address":"112XSBrgZbdKGySrXByLZwqDVv8bcPUXE3AhyZ3xZmQfrwzqto3D","name":"boxy-pebble-squirrel","lat":"51.58899007971817","lng":"-0.0032100044910819115","beac_rate":51,"ref_rss":"-117.7526458522509","w_N":0,"w_NE":0,"w_E":1,"w_SE":3,"w_S":13,"w_SW":2,"w_W":3,"w_NW":1},{"address":"11sxBEbwTVAv1s1HugBwdzW1QTuc5By7WFdaVUE2ePFFt3jAjWD","name":"able-seafoam-chipmunk","lat":"51.45835419675179","lng":"-0.108917169642945","beac_rate":41.5,"ref_rss":"-76.60027223103177","w_N":4,"w_NE":9,"w_E":4,"w_SE":2,"w_S":5,"w_SW":2,"w_W":1,"w_NW":3},{"address":"11gwixCPiWBug1MH8cuWc9SwKgkbCkryjtdSmz6WuSqRjz5mPur","name":"wonderful-aegean-hippo","lat":"51.479021252237324","lng":"-0.09727545032154243","beac_rate":6.5,"ref_rss":"-95.8616726023026","w_N":54,"w_NE":23,"w_E":9,"w_SE":9,"w_S":18,"w_SW":18,"w_W":12,"w_NW":13},{"address":"11UBF1vXMShqLZ3wfsG27nX1ceg6hp82gZhkictrhevbFz8cDVw","name":"special-punch-mantis","lat":"51.492014174270324","lng":"-0.17405204399094848","beac_rate":17.5,"ref_rss":"-59.27824976880633","w_N":0,"w_NE":0,"w_E":0,"w_SE":2,"w_S":2,"w_SW":1,"w_W":0,"w_NW":0},{"address":"112ttBGBZWjKCx2LBmvmRFirp1tZ5mJ2Uf2wBCScB4UPZA4ZB5oW","name":"bubbly-daisy-rat","lat":"51.491625881879166","lng":"0.05021060089582878","beac_rate":4.5,"ref_rss":"-89.67666470020106","w_N":11,"w_NE":6,"w_E":9,"w_SE":30,"w_S":41,"w_SW":6,"w_W":3,"w_NW":2},{"address":"11289YQD6dfFrCarkCts1PhRc4PJ6YmDbSqzAorePoaXKnZ4dBZw","name":"deep-fleece-seagull","lat":"51.606580916919704","lng":"-0.009690801144026477","beac_rate":28,"ref_rss":"-117.91827121221263","w_N":0,"w_NE":1,"w_E":1,"w_SE":5,"w_S":25,"w_SW":11,"w_W":10,"w_NW":0},{"address":"11N2zwk44K8hGpgqzZq1u8pXvWGgAvvxaTX8E5okHVoFhHyNZ5w","name":"sharp-cherry-mallard","lat":"51.42352538602793","lng":"-0.08736256225429556","beac_rate":71.5,"ref_rss":"-106.28862429840744","w_N":8,"w_NE":1,"w_E":11,"w_SE":1,"w_S":3,"w_SW":2,"w_W":1,"w_NW":3},{"address":"11FgdXfrwrVnXZFMFvbKTmdgsgToxqJYLcmunBhAE893cfBb2i6","name":"steep-ruby-mink","lat":"51.57277710603829","lng":"-0.0905785564634535","beac_rate":35.5,"ref_rss":"-98.55297486654976","w_N":9,"w_NE":6,"w_E":3,"w_SE":10,"w_S":13,"w_SW":4,"w_W":2,"w_NW":30},{"address":"11iAwCDR99xZfFmX8oxW8zhcg3sSAvkjmRq85jWv1pvo6f8zmPm","name":"faint-taffy-unicorn","lat":"51.51170246747593","lng":"-0.1927853135251005","beac_rate":35.5,"ref_rss":"-117.39348162362322","w_N":6,"w_NE":3,"w_E":7,"w_SE":3,"w_S":12,"w_SW":7,"w_W":1,"w_NW":2},{"address":"112Ft8ecqXf8wUR1NSETwEQCKxkqpF64S4vAhjoWLxccrWBsV8t4","name":"lively-teal-pike","lat":"51.52362940386971","lng":"-0.1946173944771969","beac_rate":55.5,"ref_rss":"-112.17436794467004","w_N":4,"w_NE":1,"w_E":4,"w_SE":5,"w_S":2,"w_SW":0,"w_W":1,"w_NW":2},{"address":"11sVYN99WJWFRNoaWMTGBjeuzCkvW7DPHaAsZSWJvC1B45MtNTh","name":"tangy-ginger-tarantula","lat":"51.4804561737649","lng":"0.08326709957438208","beac_rate":25.5,"ref_rss":"-97.12280667518273","w_N":5,"w_NE":8,"w_E":7,"w_SE":25,"w_S":12,"w_SW":2,"w_W":0,"w_NW":2},{"address":"112eUkveH6dt3SPm6U2nEums6TAaUaRJN58nUY5y6AocfzjgMXEd","name":"delightful-chiffon-ladybug","lat":"51.51584794730042","lng":"-0.022864506697903703","beac_rate":11.5,"ref_rss":"-110.5176520033597","w_N":10,"w_NE":9,"w_E":5,"w_SE":4,"w_S":8,"w_SW":10,"w_W":5,"w_NW":15},{"address":"11t3txAResS4knDCnes4xUJ4aLpQFjz5g1yQe2VMwLtpNZKEJPj","name":"macho-carob-swan","lat":"51.51608748863128","lng":"-0.20084260260457465","beac_rate":23,"ref_rss":"-111.93009710043606","w_N":10,"w_NE":2,"w_E":4,"w_SE":1,"w_S":9,"w_SW":9,"w_W":2,"w_NW":7},{"address":"112kazJY2RY6cCPTkA1k6iamZU2CXvjTpFKtGBUuYHnj5jFucDbB","name":"stable-carob-flamingo","lat":"51.51123932317287","lng":"-0.0836282511329613","beac_rate":24.5,"ref_rss":"-117.11577838244347","w_N":10,"w_NE":5,"w_E":0,"w_SE":10,"w_S":17,"w_SW":5,"w_W":5,"w_NW":8},{"address":"115qBCorRXRePCiGqEZiZ1NWit1NHMckxeRfRh5tqgjweb476eL","name":"winning-zinc-snake","lat":"51.49942176389999","lng":"-0.01905811934954324","beac_rate":16.5,"ref_rss":"-108.66032689922893","w_N":15,"w_NE":6,"w_E":1,"w_SE":5,"w_S":20,"w_SW":12,"w_W":5,"w_NW":11},{"address":"112KraH6JVqZG4rt6BbzXCq2MSjK2KLHsVZySQ2p1HDr55vvnbsu","name":"abundant-malachite-mammoth","lat":"51.54621569696764","lng":"-0.05774071344378642","beac_rate":3,"ref_rss":"-91.11398683860976","w_N":17,"w_NE":2,"w_E":2,"w_SE":6,"w_S":21,"w_SW":15,"w_W":4,"w_NW":21},{"address":"112oDmNAceGkiA9pJcRH3BNAAXPZNRDDJJRTqoqc3SF8JZfVhd33","name":"strong-sand-chicken","lat":"51.44373099958493","lng":"-0.1114845690267874","beac_rate":5,"ref_rss":"-104.00918989708455","w_N":13,"w_NE":53,"w_E":26,"w_SE":20,"w_S":7,"w_SW":0,"w_W":1,"w_NW":4},{"address":"11hzZF7vNLi7kqncqtLV5s934W5AbCVMjLxZ2zcwt1T9qv3VL2W","name":"hot-bronze-osprey","lat":"51.55544219406389","lng":"-0.12323059108582464","beac_rate":6.5,"ref_rss":"-111.06373598897795","w_N":33,"w_NE":7,"w_E":4,"w_SE":9,"w_S":9,"w_SW":13,"w_W":5,"w_NW":19},{"address":"11HuWLUHs93dRYGFN3d3R8JkEmzcENbvqKEeFr1jNjVZP2rXu74","name":"cuddly-hazel-peacock","lat":"51.47335823402861","lng":"-0.19332841045388494","beac_rate":19,"ref_rss":"-122.56778846844993","w_N":10,"w_NE":6,"w_E":3,"w_SE":9,"w_S":14,"w_SW":5,"w_W":4,"w_NW":4},{"address":"11uSzjBcwdKpu1hEtiqS3ea6Q1tS3S1JSgRmtjZd8keaf325bb6","name":"small-misty-skunk","lat":"51.462039427448495","lng":"-0.09359773160959993","beac_rate":4,"ref_rss":"-104.86978390975987","w_N":11,"w_NE":29,"w_E":10,"w_SE":24,"w_S":35,"w_SW":8,"w_W":2,"w_NW":2},{"address":"112rNvqxPgqADndCJhjckuTam3nR33Wbj2ATh141RdCUUamoBSmh","name":"prehistoric-chocolate-eagle","lat":"51.52831741896875","lng":"-0.07203849776651226","beac_rate":22.5,"ref_rss":"-95.0081403721591","w_N":16,"w_NE":13,"w_E":12,"w_SE":13,"w_S":24,"w_SW":7,"w_W":17,"w_NW":16},{"address":"11dqiGXhDuk4B9kmUx2f6rD777jNU5puAeUpAEWLuZJYrLWbmDS","name":"fluffy-snowy-bear","lat":"51.51979565936891","lng":"-0.021647052562635848","beac_rate":40.5,"ref_rss":"-106.26741089570143","w_N":7,"w_NE":9,"w_E":10,"w_SE":13,"w_S":28,"w_SW":13,"w_W":7,"w_NW":20},{"address":"117z1C3ynqj82xSJLozmMw7eo2znU8XHazHifU6HWZ7D2e1usNV","name":"hollow-currant-robin","lat":"51.59018178186667","lng":"0.02227213496704819","beac_rate":11.5,"ref_rss":"-78.09658496544006","w_N":1,"w_NE":0,"w_E":0,"w_SE":0,"w_S":2,"w_SW":2,"w_W":7,"w_NW":14},{"address":"112JhrfiYQpsWKrGLPSdNsbGWSkHm8cveo3CPa72rUZa4dtpfd6b","name":"dazzling-basil-poodle","lat":"51.57289854714875","lng":"-0.016254156427111092","beac_rate":64,"ref_rss":"-109.14920782671189","w_N":4,"w_NE":3,"w_E":3,"w_SE":10,"w_S":14,"w_SW":22,"w_W":16,"w_NW":15},{"address":"11dPyPkLQx1pdUaAsTuHtGMRVMg2CRa4Z99Sw2ttqHLVNHEs9rz","name":"witty-daisy-canary","lat":"51.540127423764375","lng":"0.05074704175224075","beac_rate":37.5,"ref_rss":"-98.89728781704683","w_N":2,"w_NE":3,"w_E":3,"w_SE":5,"w_S":5,"w_SW":4,"w_W":6,"w_NW":4},{"address":"112rWK6J9xrYLwpX8Niqvb3DaegXRpMH9yZs7p1Lo4tVq6GXHwz1","name":"bumpy-wooden-toad","lat":"51.538423741055226","lng":"0.030749286190917446","beac_rate":40,"ref_rss":"-110.14372123727878","w_N":2,"w_NE":2,"w_E":4,"w_SE":3,"w_S":6,"w_SW":4,"w_W":3,"w_NW":8},{"address":"11cjrkwF9tGtEY1yukhG4y8CzbV5B2UiK9kRTE9KvP3GkPkxfvh","name":"clean-sable-wolf","lat":"51.542972558513796","lng":"0.062469146239948974","beac_rate":28.5,"ref_rss":"-106.84621388330663","w_N":0,"w_NE":0,"w_E":2,"w_SE":8,"w_S":94,"w_SW":39,"w_W":40,"w_NW":10},{"address":"11mCveg5iL6sQ3kVKKyUjuFCGmcZoaxpnCe1XdFSGxiTV41uHYo","name":"feisty-fossilized-python","lat":"51.47958651015247","lng":"-0.03544449662455018","beac_rate":8,"ref_rss":"-88.55886368114017","w_N":17,"w_NE":11,"w_E":17,"w_SE":47,"w_S":66,"w_SW":9,"w_W":1,"w_NW":6},{"address":"11NQSUUg8qbCmdM6qLZxSg6bTnRaqD7hbhyEfMTAQF4ortEMo68","name":"big-leather-goblin","lat":"51.516363305240134","lng":"0.052239002144334745","beac_rate":54.5,"ref_rss":"-127.37483193476416","w_N":2,"w_NE":2,"w_E":4,"w_SE":5,"w_S":17,"w_SW":9,"w_W":12,"w_NW":23},{"address":"112rR117e5dBEf7EBD8Mw3LkYxwGbTcxdMdHQ3ZcSvYSTTtZicxR","name":"precise-cloud-baboon","lat":"51.53072457399019","lng":"0.06285078985858984","beac_rate":40,"ref_rss":"-112.45954345140352","w_N":0,"w_NE":0,"w_E":5,"w_SE":4,"w_S":12,"w_SW":9,"w_W":5,"w_NW":9},{"address":"11kYqUKf69izyFVdWvfbfmpWj9oGRHCwRQNxZC121jXtLfmxL1W","name":"stale-zinc-dalmatian","lat":"51.52978882490783","lng":"0.04671434399802795","beac_rate":32,"ref_rss":"-120.53309252503485","w_N":3,"w_NE":0,"w_E":1,"w_SE":1,"w_S":5,"w_SW":7,"w_W":3,"w_NW":10},{"address":"11QK63NYWvLtsSJn22Z5janJ3WUFdtxJK2BRBrau3TcZR9VLw8x","name":"deep-red-hornet","lat":"51.510762868505914","lng":"-0.06331752190465527","beac_rate":5,"ref_rss":"-91.88788922511664","w_N":21,"w_NE":12,"w_E":19,"w_SE":17,"w_S":28,"w_SW":25,"w_W":11,"w_NW":16},{"address":"118hzN9iQeQrZGPbAhTr3paUvEVGjsox4BZUdzms49UhRSTVMw8","name":"low-syrup-octopus","lat":"51.5283170575922","lng":"-0.04117429793848113","beac_rate":32.5,"ref_rss":"-123.43158707901519","w_N":5,"w_NE":11,"w_E":7,"w_SE":15,"w_S":19,"w_SW":11,"w_W":0,"w_NW":3},{"address":"112kJuncmSq3Lh2A1dKPgGC9K8LgMqhtnnqAdFgjqrw45m1x6tLT","name":"formal-rainbow-cod","lat":"51.47955164525173","lng":"-0.16742322453943176","beac_rate":28.5,"ref_rss":"-115.3668799058534","w_N":6,"w_NE":4,"w_E":1,"w_SE":4,"w_S":8,"w_SW":9,"w_W":3,"w_NW":4},{"address":"11cKUQkhmXjb86CQPPNd4SxiAUd9LUCX8ymJ1ek8gHbVqgZY9Zk","name":"custom-cinnamon-frog","lat":"51.51431387262725","lng":"-0.21904923047963107","beac_rate":10.5,"ref_rss":"-101.85414584279825","w_N":45,"w_NE":14,"w_E":7,"w_SE":8,"w_S":17,"w_SW":15,"w_W":16,"w_NW":25},{"address":"1124tUEU42PC2f2BNCNPvwkDDLRdsKDgmdUMDgmKmbg9Y6JjiPnV","name":"savory-plastic-boar","lat":"51.478205047702104","lng":"-0.112595993697725","beac_rate":11,"ref_rss":"-92.36105639045171","w_N":12,"w_NE":3,"w_E":1,"w_SE":4,"w_S":12,"w_SW":2,"w_W":4,"w_NW":8},{"address":"117fzewSo2XCHSjewdDohetxZW8Si7KR9H73xJUbESkeRMTUu17","name":"warm-coral-dachshund","lat":"51.46804118471217","lng":"-0.1194101735015707","beac_rate":15.5,"ref_rss":"-101.3610001396265","w_N":33,"w_NE":17,"w_E":13,"w_SE":10,"w_S":4,"w_SW":7,"w_W":5,"w_NW":3},{"address":"1143k4riPyZPJBHgeUnYWkSTnS2tHDNdVhfnB83C1613WkrGxiy","name":"elegant-opal-goblin","lat":"51.40784740257121","lng":"-0.061241687599086894","beac_rate":32,"ref_rss":"-115.13746330640164","w_N":0,"w_NE":1,"w_E":5,"w_SE":9,"w_S":15,"w_SW":4,"w_W":1,"w_NW":0},{"address":"112cd9ty5KVhsd8eDbnD35AybFWs2T5EjgqAFBuYDUPEPA2s9HU6","name":"bitter-glossy-grasshopper","lat":"51.42113714014198","lng":"-0.09100586008813388","beac_rate":70,"ref_rss":"-104.52209206922568","w_N":15,"w_NE":23,"w_E":36,"w_SE":33,"w_S":10,"w_SW":0,"w_W":0,"w_NW":0},{"address":"1123xEQWq8GdB4AkmsTbgdnHWSHod5avB5xxLsMs7AzzbVphco1F","name":"high-arctic-whale","lat":"51.441572567053846","lng":"0.046913711698368256","beac_rate":10.5,"ref_rss":"-83.68125253970872","w_N":2,"w_NE":9,"w_E":15,"w_SE":49,"w_S":74,"w_SW":1,"w_W":0,"w_NW":4},{"address":"11EiHMCptzXN88gTWzyKY7YrPcfVeYaabUsXsCdaFDzZmcJ87fK","name":"shallow-carmine-hedgehog","lat":"51.56598894820672","lng":"-0.10782488626850414","beac_rate":3,"ref_rss":"-91.56140975042509","w_N":22,"w_NE":5,"w_E":1,"w_SE":1,"w_S":9,"w_SW":18,"w_W":12,"w_NW":42},{"address":"112QgvH34P7pQpRmEjX4uKDuKt8BDSBryPYzjCJCysfqqRoAUpF","name":"cheesy-peach-pheasant","lat":"51.613030864137805","lng":"-0.13235462381661","beac_rate":43.5,"ref_rss":"-107.73814338982207","w_N":25,"w_NE":0,"w_E":2,"w_SE":3,"w_S":2,"w_SW":4,"w_W":1,"w_NW":2},{"address":"11CTX8xX4RGZJLUui5fNang6KjTvUeKPSxPkQ8H5V7aNUqZVyU9","name":"hot-bronze-carp","lat":"51.51758468470743","lng":"-0.16759744632924","beac_rate":7,"ref_rss":"-83.76892956040382","w_N":8,"w_NE":8,"w_E":3,"w_SE":18,"w_S":41,"w_SW":13,"w_W":4,"w_NW":10},{"address":"112avsi3ffC16uf3F4fmynC5yj4zdGn3ySf5cTZoqvp4VZjaohWp","name":"ambitious-daffodil-loris","lat":"51.530912789092525","lng":"-0.20201728026196286","beac_rate":13.5,"ref_rss":"-70.70247848508411","w_N":13,"w_NE":4,"w_E":1,"w_SE":1,"w_S":6,"w_SW":12,"w_W":4,"w_NW":6},{"address":"112gVci7UG9sFgaDQ9EnJnqSmvirykjFxdxYYKMdCmSaDTeXVwXg","name":"narrow-hazel-pike","lat":"51.5498436595145","lng":"-0.12150594998777464","beac_rate":6,"ref_rss":"-109.32434430284685","w_N":13,"w_NE":7,"w_E":6,"w_SE":8,"w_S":23,"w_SW":27,"w_W":6,"w_NW":19},{"address":"112sJTQuWURpzh9fRu7sBLBswewGeYosBrXiGZ59Me37kG8QNKwX","name":"stable-walnut-ostrich","lat":"51.47338355173631","lng":"-0.04690576115716099","beac_rate":3,"ref_rss":"-83.517508326598","w_N":11,"w_NE":13,"w_E":17,"w_SE":19,"w_S":30,"w_SW":6,"w_W":1,"w_NW":2},{"address":"11PyiN8NhxDH1gAim5paWfTG3LaUrRrDZCddiS9XjAdcxqzXPWv","name":"wobbly-orchid-chipmunk","lat":"51.51758468470743","lng":"-0.16759744632924","beac_rate":3.5,"ref_rss":"187.73063863162446","w_N":0,"w_NE":0,"w_E":0,"w_SE":16,"w_S":1,"w_SW":0,"w_W":0,"w_NW":0},{"address":"112pFbtPvM3o3869qKKKNc16QFCANFMG2WmWJidWQvAmgBQ2XCZW","name":"docile-lemon-nuthatch","lat":"51.49508743788474","lng":"-0.09730019991009878","beac_rate":8,"ref_rss":"-102.43930813975261","w_N":28,"w_NE":27,"w_E":17,"w_SE":20,"w_S":13,"w_SW":6,"w_W":7,"w_NW":13},{"address":"11wgYZpx2SbQ1xbVSSxFGGuHNusHgFuTwhwFRVzWAz7b58ho1XW","name":"savory-citron-wombat","lat":"51.48957600947456","lng":"-0.211055417885823","beac_rate":34.5,"ref_rss":"-112.64603190842834","w_N":12,"w_NE":9,"w_E":10,"w_SE":4,"w_S":15,"w_SW":10,"w_W":5,"w_NW":12},{"address":"112Fn7iHqiYkWRSet2dpgVsRhfoXzVo1bhVvmrB6dncRzrSMutqH","name":"dizzy-satin-lark","lat":"51.51847283423925","lng":"-0.16943976113466133","beac_rate":15.5,"ref_rss":"-115.09285714285714","w_N":28,"w_NE":0,"w_E":0,"w_SE":0,"w_S":53,"w_SW":0,"w_W":0,"w_NW":0},{"address":"112eNDvqWEy6KEhrCABFxumFD8rjo8bcLpLVZYcsud3iTnQEwkAK","name":"boxy-goldenrod-sealion","lat":"51.51847283423925","lng":"-0.16943976113466133","beac_rate":10.5,"ref_rss":"-115.15698022331483","w_N":25,"w_NE":0,"w_E":0,"w_SE":0,"w_S":45,"w_SW":0,"w_W":0,"w_NW":1},{"address":"11hBdGQBJSMuX8cMPwguFpYDA7xZBeoWznJeZ5ahqLwcrGM6qLx","name":"large-linen-frog","lat":"51.51847283423925","lng":"-0.16943976113466133","beac_rate":13.5,"ref_rss":"-114.4375","w_N":28,"w_NE":0,"w_E":0,"w_SE":0,"w_S":51,"w_SW":0,"w_W":0,"w_NW":0},{"address":"112Bmno6ma4B3BmPBjkJQum3QGqYmK4DQ7pqA8M6TMBWzeGXKPth","name":"crazy-citron-turkey","lat":"51.51851535199225","lng":"-0.16968875167264014","beac_rate":11.5,"ref_rss":"-116.25462962962963","w_N":53,"w_NE":0,"w_E":0,"w_SE":0,"w_S":0,"w_SW":0,"w_W":0,"w_NW":0},{"address":"111F55aTwU2dYjCKSVpb5HDJ9posBvpij1Xj3A66Hew3mKdm6H6","name":"clever-rosewood-worm","lat":"51.51851535199225","lng":"-0.16968875167264014","beac_rate":12.5,"ref_rss":"-116.4125","w_N":73,"w_NE":0,"w_E":0,"w_SE":0,"w_S":0,"w_SW":0,"w_W":0,"w_NW":0},{"address":"112u3RnB4Gx5NwVJ5wrGU83tACGacDm4sHiv4hjrRa6NLGbZ4nWB","name":"abundant-rainbow-oyster","lat":"51.51851535199225","lng":"-0.16968875167264014","beac_rate":14,"ref_rss":"-115.28252008846749","w_N":78,"w_NE":0,"w_E":0,"w_SE":0,"w_S":0,"w_SW":0,"w_W":0,"w_NW":1},{"address":"112d7JRsvGGM3d5DkR1BgzZhiUqDJ94S89LVZJXCWDkHSwFCFai9","name":"short-dijon-robin","lat":"51.51851535199225","lng":"-0.16968875167264014","beac_rate":13.5,"ref_rss":"-116.7562364564964","w_N":73,"w_NE":0,"w_E":0,"w_SE":0,"w_S":0,"w_SW":0,"w_W":0,"w_NW":1},{"address":"112rYc6QjtjfaAbAWEPo5JegiQ5PL85BLfkcenQ18x5WzAV1VuiS","name":"perfect-marigold-goblin","lat":"51.51847283423925","lng":"-0.16943976113466133","beac_rate":9.5,"ref_rss":"-113.10833333333333","w_N":20,"w_NE":0,"w_E":0,"w_SE":0,"w_S":40,"w_SW":0,"w_W":0,"w_NW":0},{"address":"11ZSENTnX2kA1VYcvFRm5nhHo57LNe98VMRNyShFWXbhuhNjuiv","name":"small-violet-shrimp","lat":"51.51847283423925","lng":"-0.16943976113466133","beac_rate":13,"ref_rss":"-115.6329761457856","w_N":21,"w_NE":0,"w_E":0,"w_SE":0,"w_S":44,"w_SW":0,"w_W":0,"w_NW":1},{"address":"11XEHLjNR9RFjn75SJRqsbjBPUTsJazPUKTaxGUqjUgC1i2bKYs","name":"nutty-clear-pony","lat":"51.51847283423925","lng":"-0.16943976113466133","beac_rate":8,"ref_rss":"-114.10227272727273","w_N":22,"w_NE":0,"w_E":0,"w_SE":0,"w_S":45,"w_SW":0,"w_W":0,"w_NW":0},{"address":"11RKfVsFre1asjbHdxqV4egnZWqapPf5obPqPYpUkKgrxM1r9xq","name":"special-gauze-oyster","lat":"51.48231712199821","lng":"0.08742248569005137","beac_rate":5,"ref_rss":"-77.8861456788224","w_N":6,"w_NE":5,"w_E":2,"w_SE":51,"w_S":30,"w_SW":3,"w_W":0,"w_NW":2},{"address":"112LN9qpiejRQ6wUJR9sYCpLbs8SQSqkcnJYacTCdUkkCurirzbs","name":"prehistoric-aegean-dog","lat":"51.51847283423925","lng":"-0.16943976113466133","beac_rate":15.5,"ref_rss":"-117.74802955665025","w_N":29,"w_NE":0,"w_E":0,"w_SE":0,"w_S":51,"w_SW":0,"w_W":0,"w_NW":0},{"address":"11237B2UxSJVBWv4c3KZjicXkHS63wSQgzbrU6hkbcJvRQ72gSfz","name":"keen-sangria-hippo","lat":"51.51851535199225","lng":"-0.16968875167264014","beac_rate":14,"ref_rss":"-114.69150326797386","w_N":77,"w_NE":0,"w_E":0,"w_SE":0,"w_S":0,"w_SW":0,"w_W":0,"w_NW":0},{"address":"11cVrF2n4BRKytf892rpZNMs3UHn6cYvyFLmCmFTfSddzR4M5ib","name":"daring-taupe-trout","lat":"51.51851535199225","lng":"-0.16968875167264014","beac_rate":13.5,"ref_rss":"-114.85740740740741","w_N":72,"w_NE":0,"w_E":0,"w_SE":0,"w_S":0,"w_SW":0,"w_W":0,"w_NW":0},{"address":"112KEezrEMzYQ6wbfQgP1E16nxdCEPCBaut4c6xfRbxgtdsCjyym","name":"bitter-misty-koala","lat":"51.51851535199225","lng":"-0.16968875167264014","beac_rate":16.5,"ref_rss":"-113.66666666666667","w_N":68,"w_NE":0,"w_E":0,"w_SE":0,"w_S":0,"w_SW":0,"w_W":0,"w_NW":0},{"address":"11M4LKbcED4yycRFrzNhCs1VNPp5cJVHbrxURUh5C27xfGLHU2x","name":"creamy-pineapple-raccoon","lat":"51.51851535199225","lng":"-0.16968875167264014","beac_rate":11.5,"ref_rss":"-114.20460161189817","w_N":80,"w_NE":0,"w_E":0,"w_SE":0,"w_S":0,"w_SW":0,"w_W":0,"w_NW":1},{"address":"112RsLNWTpFsddJq9gDxJDpeA5jRX1jDmwyQKZRB1nq9Hdmjc1Bg","name":"real-lava-owl","lat":"51.51847283423925","lng":"-0.16943976113466133","beac_rate":10.5,"ref_rss":"-116.85714285714286","w_N":21,"w_NE":0,"w_E":0,"w_SE":0,"w_S":43,"w_SW":0,"w_W":0,"w_NW":0},{"address":"11dgWnu6dNuY5KMwjprYmL2FpnDTxEm1CHhH4S8RgBVtdrwZrDp","name":"fluffy-sable-spider","lat":"51.51851535199225","lng":"-0.16968875167264014","beac_rate":11.5,"ref_rss":"-115.92021276595744","w_N":74,"w_NE":0,"w_E":0,"w_SE":0,"w_S":0,"w_SW":0,"w_W":0,"w_NW":0},{"address":"112LngGN4LWCgo8kZS8R5de8z4RovGyGUHjQwGfCd6cuDW42UjT1","name":"oblong-teal-pheasant","lat":"51.51851535199225","lng":"-0.16968875167264014","beac_rate":5.5,"ref_rss":"-113.44086021505376","w_N":49,"w_NE":0,"w_E":0,"w_SE":0,"w_S":0,"w_SW":0,"w_W":0,"w_NW":0},{"address":"112JaAAC8cEaZqaiUCJZMVL8hB9atpnGTjdPwHz6gPpxWe5EHpnj","name":"broad-slate-panther","lat":"51.51851535199225","lng":"-0.16968875167264014","beac_rate":12,"ref_rss":"-115.32908496732026","w_N":79,"w_NE":0,"w_E":0,"w_SE":0,"w_S":0,"w_SW":0,"w_W":0,"w_NW":0},{"address":"11ni6DJj8i8BRXULEmYXrGifUuht7PnMf3xDW3VdgktYte7fW3C","name":"long-dijon-goose","lat":"51.51851535199225","lng":"-0.16968875167264014","beac_rate":17.5,"ref_rss":"-114.83276192696172","w_N":78,"w_NE":0,"w_E":0,"w_SE":0,"w_S":0,"w_SW":0,"w_W":0,"w_NW":0},{"address":"112RrTPozLyZrTzJTauNMkexKMD4Ld9GkRcLJZwekz4zxcoSQZgZ","name":"zealous-carmine-snail","lat":"51.51851535199225","lng":"-0.16968875167264014","beac_rate":10.5,"ref_rss":"-113.73263888888889","w_N":74,"w_NE":0,"w_E":0,"w_SE":0,"w_S":0,"w_SW":0,"w_W":0,"w_NW":0},{"address":"1125i9AVvQaoZ8dkvKQayDmWu4eT6C8wVPqj3cAXxK8dgY6pbvp3","name":"calm-coal-lemur","lat":"51.51851535199225","lng":"-0.16968875167264014","beac_rate":11,"ref_rss":"-115.97545360737026","w_N":75,"w_NE":0,"w_E":0,"w_SE":0,"w_S":0,"w_SW":0,"w_W":0,"w_NW":1},{"address":"11a5UavgmqAXag1wbSVcxCGH7GmguQnJT8NMJmyrP7MCirPR8NC","name":"dapper-sage-pig","lat":"51.51851535199225","lng":"-0.16968875167264014","beac_rate":14.5,"ref_rss":"-115.2465514607572","w_N":76,"w_NE":0,"w_E":0,"w_SE":0,"w_S":0,"w_SW":0,"w_W":0,"w_NW":1},{"address":"11htzxQJYTKgTgZLdDwRYYsS2KosTSCV4XYxT3JihMtnVfyRX9X","name":"fun-opal-marmot","lat":"51.51847283423925","lng":"-0.16943976113466133","beac_rate":14.5,"ref_rss":"-117.00018984456193","w_N":28,"w_NE":0,"w_E":0,"w_SE":0,"w_S":50,"w_SW":0,"w_W":0,"w_NW":1},{"address":"11QWXrCrycC43u4qqfC6SCUvHHoF5G5qHcnnqgwN8XPP7wrQAtz","name":"chilly-topaz-chicken","lat":"51.51851535199225","lng":"-0.16968875167264014","beac_rate":15,"ref_rss":"-114.02721088435374","w_N":73,"w_NE":0,"w_E":0,"w_SE":0,"w_S":0,"w_SW":0,"w_W":0,"w_NW":0},{"address":"112dfJT978vb8pfz9QeBjY2LEXGof8AfwF9aLqz1LEXNGrs1sTXe","name":"jumpy-mustard-opossum","lat":"51.51851535199225","lng":"-0.16968875167264014","beac_rate":17,"ref_rss":"-115.61873315363881","w_N":82,"w_NE":0,"w_E":0,"w_SE":0,"w_S":0,"w_SW":0,"w_W":0,"w_NW":0},{"address":"112Cr9dFTHgWadqX4dEnHrQubNRjmsuYBked7kGuH3ApnXPnWkUr","name":"kind-merlot-salamander","lat":"51.51851535199225","lng":"-0.16968875167264014","beac_rate":11,"ref_rss":"-114.95833333333333","w_N":67,"w_NE":0,"w_E":0,"w_SE":0,"w_S":0,"w_SW":0,"w_W":0,"w_NW":0},{"address":"114XVCAfKvyZ4MhGGRxMdKrsUPx93PYxjZFqQckzT27TPTh9yEk","name":"gigantic-pickle-horse","lat":"51.51851535199225","lng":"-0.16968875167264014","beac_rate":10,"ref_rss":"-117.21258501714203","w_N":71,"w_NE":0,"w_E":0,"w_SE":0,"w_S":0,"w_SW":0,"w_W":0,"w_NW":0},{"address":"112FcbdxPdD2uo5vpSW2mdYmvNETyFdy8MtB9N9rpKU9mz5fi4yh","name":"overt-juniper-swallow","lat":"51.51851535199225","lng":"-0.16968875167264014","beac_rate":11.5,"ref_rss":"-114.30646003127184","w_N":72,"w_NE":0,"w_E":0,"w_SE":0,"w_S":0,"w_SW":0,"w_W":0,"w_NW":1},{"address":"11HfVQeRvtGCqBsBaJJs7zCKGfZm15NPmTor6zJMu9ggkgaiwoG","name":"genuine-amethyst-donkey","lat":"51.51851535199225","lng":"-0.16968875167264014","beac_rate":7,"ref_rss":"-114.32142532215808","w_N":61,"w_NE":0,"w_E":0,"w_SE":0,"w_S":0,"w_SW":0,"w_W":0,"w_NW":1},{"address":"11gPjJ9dZEUMYY8g57SHGrJqFXzXxHoooM2t4hxws5pJqtpzyeX","name":"zesty-blush-cow","lat":"51.51851535199225","lng":"-0.16968875167264014","beac_rate":11.5,"ref_rss":"-113.17460317460318","w_N":63,"w_NE":0,"w_E":0,"w_SE":0,"w_S":0,"w_SW":0,"w_W":0,"w_NW":0},{"address":"119fAdFceZuLeLog5N253jC99uozf9pXxQUbWXpRzuBCYVvabnG","name":"energetic-turquoise-sawfish","lat":"51.51851535199225","lng":"-0.16968875167264014","beac_rate":15.5,"ref_rss":"-112.20776014109347","w_N":81,"w_NE":0,"w_E":0,"w_SE":0,"w_S":0,"w_SW":0,"w_W":0,"w_NW":0},{"address":"11Agyu7hNbZrhcYY15eKTzi73ae6sN4n73wqHnM2FHiF5vyS5Zy","name":"obedient-fern-swallow","lat":"51.51851535199225","lng":"-0.16968875167264014","beac_rate":11.5,"ref_rss":"-113.20869565217392","w_N":74,"w_NE":0,"w_E":0,"w_SE":0,"w_S":0,"w_SW":0,"w_W":0,"w_NW":0},{"address":"112WwQT7LNfCVCcQ75urdbgRgWhmfV4w7rTRYGBurQ7Z5wegJEfT","name":"skinny-tartan-cricket","lat":"51.51851535199225","lng":"-0.16968875167264014","beac_rate":13,"ref_rss":"-114.47051282051282","w_N":77,"w_NE":0,"w_E":0,"w_SE":0,"w_S":0,"w_SW":0,"w_W":0,"w_NW":0},{"address":"11J5h7bHZqdUZyssx8tXEf1VDXJzmXEwDQKFuP2DeeXmjShMmS6","name":"strong-daisy-ferret","lat":"51.51851535199225","lng":"-0.16968875167264014","beac_rate":15.5,"ref_rss":"-114.41172161172162","w_N":79,"w_NE":0,"w_E":0,"w_SE":0,"w_S":0,"w_SW":0,"w_W":0,"w_NW":0},{"address":"112eN7VkFevSCNPmnZcNNmYs4uaid9WJV4WwNMtjCCWkhQftCMCU","name":"soaring-mauve-salamander","lat":"51.51851535199225","lng":"-0.16968875167264014","beac_rate":15.5,"ref_rss":"-112.81050725202488","w_N":69,"w_NE":0,"w_E":0,"w_SE":0,"w_S":0,"w_SW":0,"w_W":0,"w_NW":0},{"address":"11oZSa722ir3wRwHr3gd4RAcTbeNPTQrPXddPSwdkva8BLS9kQC","name":"mythical-pear-cheetah","lat":"51.51847283423925","lng":"-0.16943976113466133","beac_rate":12.5,"ref_rss":"-117.56041666666667","w_N":24,"w_NE":0,"w_E":0,"w_SE":0,"w_S":52,"w_SW":0,"w_W":0,"w_NW":0},{"address":"11DRFYMGrKC2YpQ5t6gFm4PVZZQfv8JND15B4iBvUiJbrxitKH6","name":"narrow-paisley-parrot","lat":"51.51851535199225","lng":"-0.16968875167264014","beac_rate":14,"ref_rss":"-113.35027472527473","w_N":78,"w_NE":0,"w_E":0,"w_SE":0,"w_S":0,"w_SW":0,"w_W":0,"w_NW":0},{"address":"11dJqrqqqKQHxRJEJdmLt8AQLRQe1PVgZrRGCoc1f6C5decYbja","name":"brilliant-pear-troll","lat":"51.51851535199225","lng":"-0.16968875167264014","beac_rate":16.5,"ref_rss":"-113.39923809523809","w_N":78,"w_NE":0,"w_E":0,"w_SE":0,"w_S":0,"w_SW":0,"w_W":0,"w_NW":0},{"address":"1124iE9LxXfEBS5LefaxM2vKmsVsZsg5NEGAfYF6t8E8XLC3ps9o","name":"colossal-bubblegum-bison","lat":"51.51851535199225","lng":"-0.16968875167264014","beac_rate":13.5,"ref_rss":"-113.14117724123265","w_N":76,"w_NE":0,"w_E":0,"w_SE":0,"w_S":0,"w_SW":0,"w_W":0,"w_NW":1},{"address":"112eFoy6nJYN5qdwn84LbRE36MxZgLihVh4ThK3sgP3ZkuALurXJ","name":"scrawny-strawberry-gazelle","lat":"51.51851535199225","lng":"-0.16968875167264014","beac_rate":17.5,"ref_rss":"-113.31372549669523","w_N":78,"w_NE":0,"w_E":0,"w_SE":0,"w_S":0,"w_SW":0,"w_W":0,"w_NW":0},{"address":"11ZZN7KAJzkrzntZFqcH7UpZFCgATs4tZP6raFWLgYjEHGjA6D4","name":"chilly-graphite-panther","lat":"51.51851535199225","lng":"-0.16968875167264014","beac_rate":26,"ref_rss":"-93.31593232206416","w_N":86,"w_NE":1,"w_E":0,"w_SE":1,"w_S":0,"w_SW":1,"w_W":0,"w_NW":0},{"address":"112SkPCgc75iPGu2hrQox68nXVt2GKkW6KtiTWc49TKpiDD1eJEQ","name":"mean-emerald-nuthatch","lat":"51.51851535199225","lng":"-0.16968875167264014","beac_rate":13,"ref_rss":"-114.83962264150944","w_N":79,"w_NE":0,"w_E":0,"w_SE":0,"w_S":0,"w_SW":0,"w_W":0,"w_NW":0},{"address":"114wLkCFKzjSqxGsoV63vGShccC1rZWJknxaxoVjoWNsEaVYSHh","name":"hollow-gauze-goose","lat":"51.51851535199225","lng":"-0.16968875167264014","beac_rate":11,"ref_rss":"-115.10185185185185","w_N":67,"w_NE":0,"w_E":0,"w_SE":0,"w_S":0,"w_SW":0,"w_W":0,"w_NW":0},{"address":"1127PpxJ8imtjShqVBr2wa9HxVFp2nuHepGLypeAgv5fydXVJUFU","name":"rich-coal-vulture","lat":"51.51851535199225","lng":"-0.16968875167264014","beac_rate":10.5,"ref_rss":"-116.34929078014184","w_N":74,"w_NE":0,"w_E":0,"w_SE":0,"w_S":0,"w_SW":0,"w_W":0,"w_NW":0},{"address":"112PRNK8Ng3AK4LPMFqdykcVMa8oKRLSBNJnW5YBnit4zQV2aXmr","name":"boxy-grape-mantaray","lat":"51.51851535199225","lng":"-0.16968875167264014","beac_rate":7.5,"ref_rss":"-114.4125","w_N":63,"w_NE":0,"w_E":0,"w_SE":0,"w_S":0,"w_SW":0,"w_W":0,"w_NW":0},{"address":"112JS9B29GPXVow9tZXbBf8fU8Z3mYUBZp3jo45jgR6N4VF3jyA2","name":"acidic-plum-rook","lat":"51.51847283423925","lng":"-0.16943976113466133","beac_rate":16,"ref_rss":"-118.00961537784909","w_N":26,"w_NE":0,"w_E":0,"w_SE":0,"w_S":54,"w_SW":0,"w_W":0,"w_NW":0},{"address":"11PzWM2TaYCoQK5cETGtomz8LZw9A8vgLNE9RaMHjKJE18cMTqc","name":"dancing-powder-wombat","lat":"51.51851535199225","lng":"-0.16968875167264014","beac_rate":12.5,"ref_rss":"-113.31018518518519","w_N":52,"w_NE":0,"w_E":0,"w_SE":0,"w_S":0,"w_SW":0,"w_W":0,"w_NW":0},{"address":"11QYCu7pvka3XvwKFf1TatAsDiBjMDUpQcdCGs4fkWQDBAUEwJr","name":"joyous-fleece-chinchilla","lat":"51.51847283423925","lng":"-0.16943976113466133","beac_rate":11,"ref_rss":"-116.2234824115189","w_N":18,"w_NE":0,"w_E":0,"w_SE":0,"w_S":41,"w_SW":0,"w_W":0,"w_NW":1},{"address":"11w6tzEmDNttN3UieFjHe3nrjVTLfjVYXr3dDKEk4z6HTjYqsRJ","name":"sunny-satin-goldfish","lat":"51.51851535199225","lng":"-0.16968875167264014","beac_rate":9,"ref_rss":"-112.86252540620984","w_N":66,"w_NE":0,"w_E":0,"w_SE":0,"w_S":0,"w_SW":0,"w_W":0,"w_NW":1},{"address":"11uZCKSaeAte1Febj4T6m14T7EYY12wUQe1u9mbFfo9e24eqtyX","name":"calm-sandstone-caterpillar","lat":"51.51851535199225","lng":"-0.16968875167264014","beac_rate":13.5,"ref_rss":"-108.49708461851382","w_N":79,"w_NE":0,"w_E":0,"w_SE":0,"w_S":0,"w_SW":0,"w_W":0,"w_NW":1},{"address":"11298yy5HzrDiN3ng64EG2WUy6BxXRPpm1pyVJANVP1ykiHFXwxz","name":"energetic-lead-mammoth","lat":"51.51851535199225","lng":"-0.16968875167264014","beac_rate":11,"ref_rss":"-113.89969007595553","w_N":75,"w_NE":0,"w_E":0,"w_SE":0,"w_S":0,"w_SW":0,"w_W":0,"w_NW":1},{"address":"1127LGTkWpQVjdeh6n5rnvabEr7ReQGn69Y3BgCeE3PPozQ5JQez","name":"fancy-gingham-stallion","lat":"51.51851535199225","lng":"-0.16968875167264014","beac_rate":11.5,"ref_rss":"-114.80859650897679","w_N":61,"w_NE":0,"w_E":0,"w_SE":0,"w_S":0,"w_SW":0,"w_W":0,"w_NW":1},{"address":"112Y6oEAhvLzRrhzNnq3pG6RCFEDNXwj8KpTJYXUb6ZcccS78y8x","name":"jovial-coal-copperhead","lat":"51.554336549197785","lng":"-0.08834367041731282","beac_rate":34,"ref_rss":"-119.12533607338017","w_N":11,"w_NE":3,"w_E":0,"w_SE":3,"w_S":2,"w_SW":1,"w_W":2,"w_NW":5},{"address":"112uXT8AswaQ83aKoRzDvHzrkK8rUrpArjdDbz3s3Vjpf4bcm9EH","name":"rhythmic-coral-hippo","lat":"51.43451190773813","lng":"-0.2179463384993173","beac_rate":4,"ref_rss":"-81.82408795765483","w_N":0,"w_NE":0,"w_E":3,"w_SE":0,"w_S":0,"w_SW":0,"w_W":0,"w_NW":0},{"address":"112CnMKZkjDzHwkhqVvJhcMmUPbJZeSd6Q1LJSAeckMBB4PhsiWt","name":"huge-fiery-dalmatian","lat":"51.51851535199225","lng":"-0.16968875167264014","beac_rate":14.5,"ref_rss":"-115.78261904761905","w_N":77,"w_NE":0,"w_E":0,"w_SE":0,"w_S":0,"w_SW":0,"w_W":0,"w_NW":0},{"address":"112vXWCrvkqXMahdbmkr1sBWvz7uX2EasXk6yDQurmMM2jsspcSG","name":"short-cloth-armadillo","lat":"51.51851535199225","lng":"-0.16968875167264014","beac_rate":11.5,"ref_rss":"-112.32032698098905","w_N":70,"w_NE":0,"w_E":0,"w_SE":0,"w_S":0,"w_SW":0,"w_W":0,"w_NW":1},{"address":"1123RgvE27X9hQ8ZUxV5CcPjzkxs8Nxe5mdCggnUdwigYo5eWGYw","name":"proud-iron-gibbon","lat":"51.51851535199225","lng":"-0.16968875167264014","beac_rate":9.5,"ref_rss":"-113.43297101449275","w_N":72,"w_NE":0,"w_E":0,"w_SE":0,"w_S":0,"w_SW":0,"w_W":0,"w_NW":0},{"address":"118uMx1wBojhbTPYJd3hJ3aVT9GFgSw1vW6BhKp52Hq3bwNZwc5","name":"formal-pecan-rat","lat":"51.51851535199225","lng":"-0.16968875167264014","beac_rate":11,"ref_rss":"-115.57418300769156","w_N":78,"w_NE":0,"w_E":0,"w_SE":0,"w_S":0,"w_SW":0,"w_W":0,"w_NW":0},{"address":"112fbJikN9BQLRQ12pYK7zJWcoT8iADsLvW97rp3awB14iF8SSLE","name":"rich-pearl-baboon","lat":"51.51851535199225","lng":"-0.16968875167264014","beac_rate":16,"ref_rss":"-114.13928571428572","w_N":77,"w_NE":0,"w_E":0,"w_SE":0,"w_S":0,"w_SW":0,"w_W":0,"w_NW":0},{"address":"112c13nosQifqHkMjd9xs8LoWAqiqPu6TcYdsGyitw8PaVNvTaWi","name":"howling-umber-grasshopper","lat":"51.54576410269202","lng":"-0.07597384103182624","beac_rate":8,"ref_rss":"-91.39603832043034","w_N":11,"w_NE":8,"w_E":5,"w_SE":12,"w_S":22,"w_SW":17,"w_W":12,"w_NW":12},{"address":"11MWJr6ZNLCenpFhgtoFHp8Yd9rKhsUVDtQc11LpJYyP2KUxjbK","name":"festive-sepia-nightingale","lat":"51.51851535199225","lng":"-0.16968875167264014","beac_rate":12.5,"ref_rss":"-116.115625","w_N":66,"w_NE":0,"w_E":0,"w_SE":0,"w_S":0,"w_SW":0,"w_W":0,"w_NW":0},{"address":"11dN6AbwVPFA8aZ7B2ehX8vJCSQdFcZvUgmhCF8VXACn9zk6omG","name":"bright-foggy-shell","lat":"51.51851535199225","lng":"-0.16968875167264014","beac_rate":9.5,"ref_rss":"-112.869918699187","w_N":64,"w_NE":0,"w_E":0,"w_SE":0,"w_S":0,"w_SW":0,"w_W":0,"w_NW":0},{"address":"11WpTE29FfPH7rJ5o4sbPPVe3oE6oNmCY3bmS2w53PVmAhRAuxR","name":"silly-eggplant-flamingo","lat":"51.51847283423925","lng":"-0.16943976113466133","beac_rate":12,"ref_rss":"-116.36758739757506","w_N":25,"w_NE":0,"w_E":0,"w_SE":0,"w_S":49,"w_SW":0,"w_W":0,"w_NW":1},{"address":"11hDZLK2XiHDaFEWxk1W9oA65K9Wqh4BkMnv62FKLh5QqNjhj39","name":"small-caramel-eagle","lat":"51.51847283423925","lng":"-0.16943976113466133","beac_rate":14.5,"ref_rss":"-116.25448717948719","w_N":26,"w_NE":0,"w_E":0,"w_SE":0,"w_S":53,"w_SW":0,"w_W":0,"w_NW":0},{"address":"112WsFNf8Tp7ZuhANSLEvZ9cUkJ27Wkon5N5mKJVaW3uU3rqxdBS","name":"early-marmalade-walrus","lat":"51.51851535199225","lng":"-0.16968875167264014","beac_rate":11,"ref_rss":"-114.3282945736434","w_N":70,"w_NE":0,"w_E":0,"w_SE":0,"w_S":0,"w_SW":0,"w_W":0,"w_NW":0},{"address":"11n98DpDP3g1S7MN5ZUsghvYS8ucnhxhWunsTrs7A9KqRWKZLFj","name":"wild-heather-lynx","lat":"51.51847283423925","lng":"-0.16943976113466133","beac_rate":11.5,"ref_rss":"-115.73541666666667","w_N":24,"w_NE":0,"w_E":0,"w_SE":0,"w_S":48,"w_SW":0,"w_W":0,"w_NW":0},{"address":"11Qx3ed5avNwuJEbXvhUx136MhMQYZfDsbGKzVcjuVJ7VcZ7zTC","name":"sneaky-orchid-wolf","lat":"51.51851535199225","lng":"-0.16968875167264014","beac_rate":15,"ref_rss":"-117.99007936507937","w_N":58,"w_NE":0,"w_E":0,"w_SE":0,"w_S":0,"w_SW":0,"w_W":0,"w_NW":0},{"address":"112GXbR53eMXG11dzRcQdmY4p4Xs4MpkHZsa38GfbxmgZT3uvj42","name":"ripe-ultraviolet-raccoon","lat":"51.51851535199225","lng":"-0.16968875167264014","beac_rate":15.5,"ref_rss":"-113.21587301587302","w_N":68,"w_NE":0,"w_E":0,"w_SE":0,"w_S":0,"w_SW":0,"w_W":0,"w_NW":0},{"address":"11or9Gjvz3hyoMxXi6BdbVTJoGiDi2qZRdRGF2cSnQq7yUh4VLe","name":"zealous-honey-bat","lat":"51.51851535199225","lng":"-0.16968875167264014","beac_rate":10.5,"ref_rss":"-114.44135802469135","w_N":39,"w_NE":0,"w_E":0,"w_SE":0,"w_S":0,"w_SW":0,"w_W":0,"w_NW":0},{"address":"112WQWP8gSPEwfc6eiMkRsAE47fPZyKVq5DqotfipjXqHptZPjWg","name":"keen-viridian-deer","lat":"51.51851535199225","lng":"-0.16968875167264014","beac_rate":16.5,"ref_rss":"-115.3882478742488","w_N":79,"w_NE":0,"w_E":0,"w_SE":0,"w_S":0,"w_SW":0,"w_W":0,"w_NW":0},{"address":"112FpAnYtxFm3jxaaNsyG6sHWxQHWMXZSfX95WfAkUM9y2np2LjZ","name":"zesty-metal-cobra","lat":"51.51851535199225","lng":"-0.16968875167264014","beac_rate":7.5,"ref_rss":"-116.14672582598224","w_N":80,"w_NE":0,"w_E":0,"w_SE":0,"w_S":0,"w_SW":0,"w_W":0,"w_NW":1},{"address":"11uqeqDXftYGkhcWkcZ8MkkFYTG8hmQvGc5pjwV4YSTRKotKV1P","name":"melted-indigo-beaver","lat":"51.51847283423925","lng":"-0.16943976113466133","beac_rate":16,"ref_rss":"-114.31975308641975","w_N":27,"w_NE":0,"w_E":0,"w_SE":0,"w_S":52,"w_SW":0,"w_W":0,"w_NW":0},{"address":"11JewdhrbCFw8myhRCLsbMaHyVyB9Q1NGxSnjosutWcTgX1GZ1w","name":"elegant-chocolate-pigeon","lat":"51.51847283423925","lng":"-0.16943976113466133","beac_rate":11.5,"ref_rss":"-113.93518518518518","w_N":18,"w_NE":0,"w_E":0,"w_SE":0,"w_S":35,"w_SW":0,"w_W":0,"w_NW":0},{"address":"11dPioS2aesSMeMD2dguTEhCrZvtDVK3GCbjTAmZgSAZuSUVMs3","name":"eager-citron-fox","lat":"51.51847283423925","lng":"-0.16943976113466133","beac_rate":13,"ref_rss":"-114.87666420729055","w_N":29,"w_NE":0,"w_E":0,"w_SE":0,"w_S":56,"w_SW":0,"w_W":0,"w_NW":1},{"address":"1122zGShoVV3XL2i9m8p72BnYBmE2jrUmBspBgoCCTgWLaLfPqn5","name":"beautiful-orange-turkey","lat":"51.51847283423925","lng":"-0.16943976113466133","beac_rate":11,"ref_rss":"-114.02315207001887","w_N":14,"w_NE":0,"w_E":0,"w_SE":0,"w_S":39,"w_SW":0,"w_W":0,"w_NW":1},{"address":"112ivCqixMPC3BBaBdZnFTu6yE2b5bECBuwDiKABj3spQntDsXyD","name":"boxy-berry-moose","lat":"51.522278462092245","lng":"-0.0811200916508726","beac_rate":8.5,"ref_rss":"-98.83451149347839","w_N":19,"w_NE":18,"w_E":19,"w_SE":22,"w_S":17,"w_SW":3,"w_W":3,"w_NW":8},{"address":"114BEY9oF3mDrH9fGKco2W8xwvfuKN3yPgnHGKobDDEdinj9wwr","name":"soaring-quartz-wombat","lat":"51.545597990977946","lng":"0.05226164038535005","beac_rate":49,"ref_rss":"-103.13663621684748","w_N":2,"w_NE":4,"w_E":2,"w_SE":3,"w_S":20,"w_SW":7,"w_W":8,"w_NW":11},{"address":"112CmZih4aWP26kL4BCo7LWcxG4MjjfE98HK8iT4m2WBf6m67ipR","name":"high-jetblack-platypus","lat":"51.60231431863408","lng":"-0.0673307652990541","beac_rate":40,"ref_rss":"-99.54595057160479","w_N":8,"w_NE":3,"w_E":3,"w_SE":3,"w_S":6,"w_SW":3,"w_W":3,"w_NW":8},{"address":"112DxPofwXgFrz5ajZB7k3j3d5kZTikJVbKpyUa2Aza4wgb4myec","name":"jovial-mustard-shell","lat":"51.51847283423925","lng":"-0.16943976113466133","beac_rate":11.5,"ref_rss":"-117.13030303030303","w_N":22,"w_NE":0,"w_E":0,"w_SE":0,"w_S":40,"w_SW":0,"w_W":0,"w_NW":0},{"address":"112WsZpbAm44af6HtVzwRuNDMoPPYqq83cuq1jD89j3VxZ9JFbRm","name":"polished-hazelnut-lobster","lat":"51.51847283423925","lng":"-0.16943976113466133","beac_rate":12.5,"ref_rss":"-116.10833329641994","w_N":26,"w_NE":0,"w_E":0,"w_SE":0,"w_S":43,"w_SW":0,"w_W":0,"w_NW":0},{"address":"11N1FUw1XN29iu9go4VWvRgwTV7ZVPgyeHxCRP372NMcNtFG5KX","name":"precise-vermilion-peacock","lat":"51.51851535199225","lng":"-0.16968875167264014","beac_rate":10,"ref_rss":"-116.59803921568627","w_N":60,"w_NE":0,"w_E":0,"w_SE":0,"w_S":0,"w_SW":0,"w_W":0,"w_NW":0},{"address":"11WRCvKWNKr8sqLDBWPJGsyo5MvVCj4UJeYP4TKsu6M71GYJ6Yq","name":"cool-lava-squirrel","lat":"51.51847283423925","lng":"-0.16943976113466133","beac_rate":14,"ref_rss":"-117.61319444444445","w_N":24,"w_NE":0,"w_E":0,"w_SE":0,"w_S":47,"w_SW":0,"w_W":0,"w_NW":0},{"address":"116ZFr95npR4mZ7FVtpqwsoduFM9WwKowJLnRAQYcdHF7ibfuth","name":"cool-inky-raven","lat":"51.51847283423925","lng":"-0.16943976113466133","beac_rate":8.5,"ref_rss":"-117.94047619047619","w_N":14,"w_NE":0,"w_E":0,"w_SE":0,"w_S":30,"w_SW":0,"w_W":0,"w_NW":0},{"address":"11Mq9tK9EdNUA3shDtEAPCxhrFEfsdepDe9g4EDrU1n6eVmgyPt","name":"sneaky-lavender-squirrel","lat":"51.51847283423925","lng":"-0.16943976113466133","beac_rate":11,"ref_rss":"-114.85987654320988","w_N":27,"w_NE":0,"w_E":0,"w_SE":0,"w_S":49,"w_SW":0,"w_W":0,"w_NW":0},{"address":"11zQZSWwpXzu9fWaYaQBLRycZowtkX9p9rYoZqcW4GaqpbdN4cg","name":"clever-frost-raccoon","lat":"51.51847283423925","lng":"-0.16943976113466133","beac_rate":11,"ref_rss":"-116.81119891080715","w_N":25,"w_NE":0,"w_E":0,"w_SE":0,"w_S":45,"w_SW":0,"w_W":0,"w_NW":1},{"address":"112MB5Wr9QbmEQygzhHp3BoCjh2WjMgAAJNXhytvsKrqsDVArc2D","name":"glorious-seaweed-fish","lat":"51.42170182631046","lng":"-0.1773236057135148","beac_rate":23.5,"ref_rss":"-131.06609061527743","w_N":3,"w_NE":0,"w_E":0,"w_SE":0,"w_S":4,"w_SW":1,"w_W":0,"w_NW":0},{"address":"11gPaBPaxNAFx7ambA5Yx5cb8zJeRExZRp5Fckiyvr7YZ43vBmP","name":"genuine-tiger-oyster","lat":"51.51851535199225","lng":"-0.16968875167264014","beac_rate":6.5,"ref_rss":"-117.97115384615384","w_N":59,"w_NE":0,"w_E":0,"w_SE":0,"w_S":0,"w_SW":0,"w_W":0,"w_NW":0},{"address":"112Cy7tzJhyRHcdgnbMtPC66UMJqfU16JXfPokio2sKEWBkKpoxj","name":"young-nylon-robin","lat":"51.51847283423925","lng":"-0.16943976113466133","beac_rate":3,"ref_rss":"-118.03846153846153","w_N":13,"w_NE":0,"w_E":0,"w_SE":0,"w_S":7,"w_SW":0,"w_W":0,"w_NW":0},{"address":"112AhdxuTdY3jNikRi9ji7uZuQovVZfCoMCKSqspqwtcDLnJfa9H","name":"cool-steel-pike","lat":"51.51847283423925","lng":"-0.16943976113466133","beac_rate":15.5,"ref_rss":"-115.37522132220033","w_N":25,"w_NE":0,"w_E":0,"w_SE":0,"w_S":52,"w_SW":0,"w_W":0,"w_NW":1},{"address":"112TSwCrWYcPJSWUapkJbmn4PqMWdFDzjTAtJjYnNTwJwqMwAja7","name":"clumsy-amethyst-chameleon","lat":"51.51847283423925","lng":"-0.16943976113466133","beac_rate":9.5,"ref_rss":"-116.0","w_N":18,"w_NE":0,"w_E":0,"w_SE":0,"w_S":38,"w_SW":0,"w_W":0,"w_NW":0},{"address":"11JGZNPJ4Vd58upcvZt1aL2tLWkb2GPKmqyLjmzFbPyaqckUFV4","name":"generous-iron-fly","lat":"51.51847283423925","lng":"-0.16943976113466133","beac_rate":12.5,"ref_rss":"-117.17548197516767","w_N":28,"w_NE":0,"w_E":0,"w_SE":0,"w_S":50,"w_SW":0,"w_W":0,"w_NW":1},{"address":"11s4aPkDxWVkHv2HUoyzTb9eCNLmhNhpES7UefWRJ3seTDcKSex","name":"strong-latte-pheasant","lat":"51.51847283423925","lng":"-0.16943976113466133","beac_rate":10.5,"ref_rss":"-116.55220779480376","w_N":24,"w_NE":0,"w_E":0,"w_SE":0,"w_S":47,"w_SW":0,"w_W":0,"w_NW":1},{"address":"1129G5684xivD1UNg7zcu96irTsp5iKPN82Q3cHjmNUJS584DvaA","name":"zesty-ebony-wombat","lat":"51.51847283423925","lng":"-0.16943976113466133","beac_rate":3,"ref_rss":"-124.53271312873758","w_N":10,"w_NE":0,"w_E":0,"w_SE":1,"w_S":15,"w_SW":0,"w_W":0,"w_NW":1},{"address":"11tjKifPA6ivmbJCSJQW1DdD84PX4g83PXv1G2ePdGaCBfgPMuu","name":"innocent-hickory-peacock","lat":"51.43231549231853","lng":"-0.13112052180714062","beac_rate":25,"ref_rss":"-119.24919234656184","w_N":3,"w_NE":1,"w_E":0,"w_SE":1,"w_S":8,"w_SW":0,"w_W":1,"w_NW":0},{"address":"112dvU8U5q7acovjtvnMBynBT6rQZ5RUqiy8BoK95yPuXUhT3tbn","name":"wobbly-pickle-cheetah","lat":"51.45312694079408","lng":"-0.008388602889494945","beac_rate":13,"ref_rss":"-62.73504754762254","w_N":16,"w_NE":2,"w_E":5,"w_SE":9,"w_S":19,"w_SW":6,"w_W":2,"w_NW":1},{"address":"11G4KTbtVTr9fH3uwoDscXf8d3P2Jsyeg5BfgYoq8RCvunSUhHp","name":"jumpy-watermelon-horse","lat":"51.52418758049426","lng":"0.01939579771462859","beac_rate":26.5,"ref_rss":"-108.29728060406397","w_N":8,"w_NE":5,"w_E":4,"w_SE":13,"w_S":9,"w_SW":15,"w_W":10,"w_NW":23},{"address":"11fYxd7jZ8LkjNqRZM3HDsJ2LvF6Ju3aNS7Uzh6y39A3J9RsfgN","name":"damaged-honey-armadillo","lat":"51.49875914449012","lng":"-0.11035525924415014","beac_rate":6,"ref_rss":"-106.19493363857313","w_N":59,"w_NE":12,"w_E":4,"w_SE":3,"w_S":6,"w_SW":3,"w_W":19,"w_NW":22},{"address":"11RjjPv31o5swKBX7X9rFAGHMzBxm79FUu65vG8TNShnjicy1xQ","name":"fast-denim-camel","lat":"51.63916363440019","lng":"-0.1352360392165501","beac_rate":34.5,"ref_rss":"-5.103608082122845","w_N":1,"w_NE":0,"w_E":0,"w_SE":0,"w_S":0,"w_SW":46,"w_W":1,"w_NW":0},{"address":"112voBErhqu5azxr21rzGZawsLwuv16MhUUFjbb6HkmZMWGE7daP","name":"magic-slate-tapir","lat":"51.53462573155508","lng":"0.03282345651816156","beac_rate":8.5,"ref_rss":"-98.03943686243899","w_N":6,"w_NE":6,"w_E":6,"w_SE":8,"w_S":27,"w_SW":16,"w_W":6,"w_NW":13},{"address":"112UheZqz8XDFmaJJUoDCpKUc6hdc7Z14kkhJ24yYHyTcFAcEr4Y","name":"immense-chili-moth","lat":"51.51826726380763","lng":"-0.16571730564055503","beac_rate":26.5,"ref_rss":"-116.11894914763428","w_N":23,"w_NE":14,"w_E":4,"w_SE":2,"w_S":17,"w_SW":6,"w_W":4,"w_NW":3},{"address":"112wgw4VNssiLkcTb98XkSh7uF5Adanq2W6AkrMYfKSy3EYmE2cU","name":"fluffy-denim-mongoose","lat":"51.554481037982725","lng":"0.05641443103989213","beac_rate":46,"ref_rss":"-112.59998800260931","w_N":1,"w_NE":0,"w_E":0,"w_SE":2,"w_S":8,"w_SW":10,"w_W":13,"w_NW":11},{"address":"112A4DPjKiqni2XcToZTnrQufMAizgWAaRDKWRmH4oheCMcabyvz","name":"tricky-taffy-badger","lat":"51.47268750278233","lng":"-0.17762668477116525","beac_rate":18,"ref_rss":"-108.14658097766943","w_N":21,"w_NE":9,"w_E":10,"w_SE":17,"w_S":27,"w_SW":6,"w_W":2,"w_NW":9},{"address":"11UzSfS7bp8Caz6uzNfZx11oZubYEw3M4ZSsd5ziE7q41r1fFi2","name":"helpful-rosewood-caribou","lat":"51.462679600435166","lng":"-0.20053037884269667","beac_rate":43.5,"ref_rss":"-354.7431953916398","w_N":0,"w_NE":4,"w_E":2,"w_SE":0,"w_S":0,"w_SW":0,"w_W":0,"w_NW":0},{"address":"11zqiaXstGnDmhwbdusgSPD6CFu8TNcZPSuyUs45Uy8YKNZYVPe","name":"fit-pecan-cat","lat":"51.509532829216475","lng":"-0.2389861970234441","beac_rate":32.5,"ref_rss":"-119.31482846159054","w_N":12,"w_NE":5,"w_E":0,"w_SE":3,"w_S":4,"w_SW":3,"w_W":5,"w_NW":5},{"address":"112LZh9NHAxz6gDt2y4Et4f9eYp3sn9PAGWEN4d1c4wn1XcoTS4M","name":"loud-metal-sardine","lat":"51.52113867482639","lng":"-0.09536832679414274","beac_rate":22,"ref_rss":"-91.3263379195072","w_N":19,"w_NE":10,"w_E":14,"w_SE":18,"w_S":14,"w_SW":8,"w_W":18,"w_NW":10},{"address":"112Rxien2ekcF8jXrbMZ1BxWj6PveMJr48vrjR7VVDy7BY91dEcV","name":"young-flint-dinosaur","lat":"51.512223458084655","lng":"-0.13623301369976284","beac_rate":38.5,"ref_rss":"-105.14308198167096","w_N":8,"w_NE":3,"w_E":2,"w_SE":4,"w_S":5,"w_SW":3,"w_W":1,"w_NW":9},{"address":"11kd4QsuDqaBJjhKHTcNMfvkfNoc7gbx81Qz8brNJJARRuA6RuM","name":"soaring-clear-urchin","lat":"51.479799103913464","lng":"-0.17139204691629906","beac_rate":7.5,"ref_rss":"-95.28790058455867","w_N":10,"w_NE":6,"w_E":3,"w_SE":19,"w_S":23,"w_SW":9,"w_W":3,"w_NW":8},{"address":"11dykfYCnPXGbpBTJApNK3qSGGWnKgZMDpVv8KpfURjuWeFFHvg","name":"joyful-fleece-penguin","lat":"51.491988834997464","lng":"-0.12106146383871627","beac_rate":31.5,"ref_rss":"-113.20384981418289","w_N":44,"w_NE":19,"w_E":6,"w_SE":3,"w_S":8,"w_SW":5,"w_W":9,"w_NW":14},{"address":"11kmRDthVDQSxHWXsenaGgwA5JsJkP5VK2GWnJGYWJV8k9FwZ6v","name":"witty-honey-shrimp","lat":"51.53971287767094","lng":"-0.25203777406876293","beac_rate":18.5,"ref_rss":"-97.09539681456174","w_N":4,"w_NE":6,"w_E":6,"w_SE":5,"w_S":3,"w_SW":0,"w_W":1,"w_NW":2},{"address":"11wyfSbfk1KQiXrhyXJ7Nf95mG72YcZjxYAGXc9TD9kYYboAvRv","name":"old-vinyl-mouse","lat":"51.615542419253785","lng":"-0.18478931289026346","beac_rate":51,"ref_rss":"-104.54538194991439","w_N":0,"w_NE":0,"w_E":0,"w_SE":0,"w_S":4,"w_SW":3,"w_W":1,"w_NW":0},{"address":"112ArYUntEu59DnbTameHvhC6MymFgXWaiw2UyRrozWG4m1EpRtn","name":"bubbly-grape-shetland","lat":"51.55817405317939","lng":"-0.21140927737673523","beac_rate":28.5,"ref_rss":"-111.69037019441889","w_N":0,"w_NE":1,"w_E":1,"w_SE":3,"w_S":5,"w_SW":3,"w_W":2,"w_NW":2},{"address":"112REA388T4k4mHXaoim4UyEAPUdJtpoJmZyD6LrRzW27w8yGuMv","name":"special-macaroon-ram","lat":"51.4691635048095","lng":"-0.13602194396626266","beac_rate":14.5,"ref_rss":"-112.78265525768798","w_N":42,"w_NE":4,"w_E":3,"w_SE":6,"w_S":5,"w_SW":6,"w_W":8,"w_NW":13},{"address":"112M8vvAhsmLSXyQiqR56kjBSXYFHXp9zUBXBnQqERyM1vLbJeSL","name":"rare-lime-cheetah","lat":"51.479166876178525","lng":"-0.09059842898649703","beac_rate":38.5,"ref_rss":"-109.14060291269013","w_N":23,"w_NE":9,"w_E":0,"w_SE":4,"w_S":13,"w_SW":10,"w_W":3,"w_NW":7},{"address":"11tHFpoyPcaVzcnUxm93PnG321oXMkiLd7QFnqatrNL5Yke9pnX","name":"swift-basil-griffin","lat":"51.42672853207977","lng":"-0.008371284727369652","beac_rate":56.5,"ref_rss":"-131.43591837769657","w_N":0,"w_NE":1,"w_E":1,"w_SE":7,"w_S":19,"w_SW":0,"w_W":0,"w_NW":0},{"address":"1121VEcBCNc9d8hX2PrxZz84ge84hrzybo3aCYGDNwD4SoTaAJQg","name":"puny-coral-lizard","lat":"51.56440747318481","lng":"-0.053517226213304535","beac_rate":19,"ref_rss":"-86.64794341610136","w_N":33,"w_NE":19,"w_E":6,"w_SE":7,"w_S":14,"w_SW":12,"w_W":19,"w_NW":27},{"address":"11T2VwZvDrbzxZoYQqvpNAqMtB8XVLJmS7Lr7m1rw8zuQyRWkSV","name":"warm-aegean-flamingo","lat":"51.48403822423034","lng":"-0.10227902845715188","beac_rate":22,"ref_rss":"-100.12043428110425","w_N":25,"w_NE":9,"w_E":10,"w_SE":6,"w_S":10,"w_SW":7,"w_W":9,"w_NW":11},{"address":"112vUgQrZ2QAgy7WjDs6sZJVBCgdTVwJUjFUHdRN63L2o1siAzQi","name":"micro-sage-salamander","lat":"51.54102867179571","lng":"0.06127979841413869","beac_rate":28,"ref_rss":"-123.86732083157283","w_N":0,"w_NE":0,"w_E":1,"w_SE":2,"w_S":3,"w_SW":4,"w_W":6,"w_NW":4},{"address":"112Z2pFCRNCj7qiduXG5em76kzRw44MPbMRWvn9YKpLUVLDTnpue","name":"attractive-merlot-goose","lat":"51.462493948637274","lng":"-0.015302888353203354","beac_rate":33.5,"ref_rss":"-108.6951246723976","w_N":18,"w_NE":12,"w_E":11,"w_SE":40,"w_S":19,"w_SW":7,"w_W":3,"w_NW":9},{"address":"1113giD2RBbphnZR2cWuWUZTSj3dE6rn3GNra45rGP1E3HjvuCH","name":"tart-sage-boar","lat":"51.48622968014025","lng":"0.06731370001996267","beac_rate":17,"ref_rss":"-96.88544172169881","w_N":19,"w_NE":4,"w_E":7,"w_SE":16,"w_S":13,"w_SW":3,"w_W":8,"w_NW":1},{"address":"112gBfm2C5U3PKz7TkBWMFUiY9vF7iiN85QsuGXMLmJnxwxdxKtu","name":"young-slate-caterpillar","lat":"51.52380797733647","lng":"-0.02496825539779899","beac_rate":30.5,"ref_rss":"-74.0656277279827","w_N":10,"w_NE":0,"w_E":0,"w_SE":0,"w_S":0,"w_SW":0,"w_W":0,"w_NW":1},{"address":"112RQ13BhGuRxhLKiKrrCJhkD9Piywzr6o99aPCn34MLB3kd8a6D","name":"brief-flaxen-pony","lat":"51.58216140143518","lng":"-0.09934435260145567","beac_rate":24,"ref_rss":"-119.87304957687168","w_N":4,"w_NE":0,"w_E":0,"w_SE":0,"w_S":1,"w_SW":2,"w_W":1,"w_NW":2},{"address":"11AA7QQGXyvAkQ4DqyQNnvJrQWD1ZjtuywypeqbyJQbMARtnaBH","name":"melodic-bone-beaver","lat":"51.495063659190336","lng":"-0.20370039498998757","beac_rate":24.5,"ref_rss":"-104.05804963806524","w_N":35,"w_NE":4,"w_E":4,"w_SE":7,"w_S":11,"w_SW":14,"w_W":5,"w_NW":16},{"address":"112jTQfDmccmLSiki5Gn2m5QoGP72WTp7Ned82hs56jBFZdiPV5T","name":"ancient-indigo-chimpanzee","lat":"51.55176573738068","lng":"-0.0700249851624475","beac_rate":4,"ref_rss":"-110.0069897521174","w_N":0,"w_NE":1,"w_E":1,"w_SE":0,"w_S":5,"w_SW":7,"w_W":3,"w_NW":0},{"address":"11rC6m1AZhiK78oG4TvKxazNCZJptimyozNwNho1LTawbWs4eyx","name":"low-frost-ostrich","lat":"51.43772097328538","lng":"-0.15097770924089465","beac_rate":10,"ref_rss":"-115.51171623778305","w_N":7,"w_NE":30,"w_E":14,"w_SE":31,"w_S":18,"w_SW":0,"w_W":1,"w_NW":4},{"address":"1125CmXkiWFon8cUMRCnhMRNYPCP3D7bHm6qa3hQgNEa4yDUZfm5","name":"scrawny-hemp-oyster","lat":"51.47873998878523","lng":"-0.1442104069544048","beac_rate":4.5,"ref_rss":"-97.14743419577023","w_N":5,"w_NE":3,"w_E":2,"w_SE":13,"w_S":28,"w_SW":4,"w_W":2,"w_NW":1},{"address":"11DFX3ARqzhyDWP5Tjs57AhLjhFjk9r1E1W9bDQgY9kKUADrHwE","name":"sneaky-pearl-cat","lat":"51.462644366663284","lng":"-0.1666949596605732","beac_rate":29.5,"ref_rss":"-113.47376822006271","w_N":36,"w_NE":25,"w_E":12,"w_SE":34,"w_S":38,"w_SW":12,"w_W":5,"w_NW":14},{"address":"11xv4f9TqbzqjK1qexuGgfPtQBMS2M9Bo5TW7gTqpfEmHeRrCnU","name":"fancy-licorice-cuckoo","lat":"51.63895029335876","lng":"-0.13398895638456226","beac_rate":21.5,"ref_rss":"-114.45808811879603","w_N":8,"w_NE":0,"w_E":0,"w_SE":0,"w_S":2,"w_SW":0,"w_W":1,"w_NW":12},{"address":"112CEvz3hZjsVkcW7TYCCHSZPkp1pkcuykH9apgGvicDKmj8XKH5","name":"bent-fleece-swan","lat":"51.56867380540488","lng":"-0.23098647524971827","beac_rate":12,"ref_rss":"-75.33647973429761","w_N":3,"w_NE":1,"w_E":1,"w_SE":9,"w_S":29,"w_SW":0,"w_W":1,"w_NW":3},{"address":"11H5SBBh9p5beX45H2GeXrxiGmt4XfxEY5p1WfrP8V3JkmoKEje","name":"short-lipstick-alligator","lat":"51.49297935891962","lng":"-0.13355017432399716","beac_rate":20,"ref_rss":"-96.96959556530153","w_N":7,"w_NE":2,"w_E":1,"w_SE":1,"w_S":3,"w_SW":7,"w_W":6,"w_NW":14},{"address":"11DxFFCH2zkz611UxBXJv71b6ntvwZsJm3F1w9owkGAsrvFvKVt","name":"pet-burlap-griffin","lat":"51.591875989183144","lng":"0.034860219365140874","beac_rate":22,"ref_rss":"-82.67109785120302","w_N":0,"w_NE":0,"w_E":0,"w_SE":1,"w_S":3,"w_SW":1,"w_W":0,"w_NW":0},{"address":"112YEGQB9E9mWFnQVeLrfiMmVYCeQmQ2oFc5H71Aju7Bg7TSUs4t","name":"hot-syrup-platypus","lat":"51.531358279006156","lng":"-0.01221162922462345","beac_rate":5,"ref_rss":"-83.52772099560912","w_N":14,"w_NE":4,"w_E":5,"w_SE":9,"w_S":38,"w_SW":26,"w_W":11,"w_NW":29},{"address":"11CKrwQrU9c7wVKzSy5hLZ3iQbDoqWwZP2DduwLsrsPMo5Y7UYE","name":"short-opal-eel","lat":"51.48894531953973","lng":"0.061563465256360264","beac_rate":3,"ref_rss":"-91.49799578657355","w_N":8,"w_NE":6,"w_E":7,"w_SE":18,"w_S":29,"w_SW":5,"w_W":3,"w_NW":2},{"address":"112tX6mpngiZ5H6AGN5HS5oUrGkZ2to7Wt82kcUg38NNT89AH6xE","name":"bent-azure-grasshopper","lat":"51.47152276476028","lng":"0.05037582844630796","beac_rate":2,"ref_rss":"-56.4085286159393","w_N":0,"w_NE":2,"w_E":1,"w_SE":13,"w_S":46,"w_SW":4,"w_W":2,"w_NW":1},{"address":"112A5PPYhNWvP6Wjfrm4SZXQqWpbHjpE2Cq4ukJQvkVoD2Ee1uq2","name":"cold-merlot-yak","lat":"51.44468672916426","lng":"-0.05686315064571925","beac_rate":17.5,"ref_rss":"-107.44920287379172","w_N":31,"w_NE":9,"w_E":19,"w_SE":22,"w_S":31,"w_SW":3,"w_W":1,"w_NW":0},{"address":"11EYi95MhTvaqGL4QzLhL8w7jBT3Qk8GtqaoepcXfit8rL9YYgE","name":"hidden-coffee-canary","lat":"51.45729239992943","lng":"-0.16307781624724252","beac_rate":35.5,"ref_rss":"-111.16836569101224","w_N":1,"w_NE":4,"w_E":2,"w_SE":14,"w_S":7,"w_SW":1,"w_W":0,"w_NW":0},{"address":"11TVo43sAMo9Drh3MnHs2syvqziBmLruDNuw6PxVBq1m4Bjgjjm","name":"fast-pink-mantaray","lat":"51.488192911972405","lng":"0.07253794402868402","beac_rate":6,"ref_rss":"-88.46319537536846","w_N":12,"w_NE":3,"w_E":5,"w_SE":13,"w_S":17,"w_SW":4,"w_W":3,"w_NW":6},{"address":"112VCwRcjfvCaqgVTnXe9GVTpLA2mt6AJLJMBjreM8ZjYroiXSMu","name":"fierce-khaki-cod","lat":"51.50872385056052","lng":"0.019290440485907896","beac_rate":7,"ref_rss":"-97.43939737962812","w_N":14,"w_NE":12,"w_E":19,"w_SE":24,"w_S":20,"w_SW":8,"w_W":4,"w_NW":17},{"address":"11VDqqK26LodVJXTpVrx8wMqHVBCXVjWogMCbD9KE9QAisXDbWP","name":"wobbly-currant-worm","lat":"51.511983260707574","lng":"-0.18098219926188208","beac_rate":22,"ref_rss":"-101.9856918604362","w_N":7,"w_NE":6,"w_E":2,"w_SE":8,"w_S":13,"w_SW":7,"w_W":1,"w_NW":5},{"address":"112rZzEpXjqNFhuV1u7fkZb7URTCfSLyLyqY3wf1cawres9sDPT7","name":"damaged-shamrock-mustang","lat":"51.554489616501414","lng":"-0.24619555923688133","beac_rate":10.5,"ref_rss":"-75.71073175112932","w_N":9,"w_NE":4,"w_E":4,"w_SE":5,"w_S":5,"w_SW":3,"w_W":3,"w_NW":3},{"address":"112Qi55dtEqCuaFS2Req1zBMPKzcRBhXAhsufPVJ23Da79LRNXUM","name":"tangy-rainbow-condor","lat":"51.52782847397503","lng":"-0.056674904735050546","beac_rate":24.5,"ref_rss":"-111.5835104857835","w_N":7,"w_NE":4,"w_E":3,"w_SE":8,"w_S":8,"w_SW":5,"w_W":3,"w_NW":6},{"address":"112Jaq9axNK6yZYgKQxmbrJ5aYUUVBWdv1TFD6p6NTNEBmjmVbeQ","name":"zany-sky-skunk","lat":"51.48808452705209","lng":"-0.01151077055860592","beac_rate":2.5,"ref_rss":"-92.54273358133389","w_N":12,"w_NE":8,"w_E":6,"w_SE":18,"w_S":22,"w_SW":8,"w_W":4,"w_NW":9},{"address":"112WTqKXGN12DkDUs6pcPc62tvjFA5rPRoQ3jsCzJqRb6ZQckB4d","name":"precise-mandarin-shetland","lat":"51.52177268166678","lng":"-0.0447977461048691","beac_rate":3.5,"ref_rss":"-94.0699899570345","w_N":15,"w_NE":7,"w_E":4,"w_SE":13,"w_S":35,"w_SW":18,"w_W":10,"w_NW":14},{"address":"11BcfNhVTqKoimcVCQ5YQZohp7FbBEvqfWmagHn2fQTn3jsoY6c","name":"lucky-gingerbread-coyote","lat":"51.510993767214885","lng":"-0.07718529330432763","beac_rate":10,"ref_rss":"-106.99790687927384","w_N":38,"w_NE":30,"w_E":16,"w_SE":19,"w_S":10,"w_SW":17,"w_W":18,"w_NW":22},{"address":"11MsYfs2qz2jtKUzXdcymmMHWQfEu7Xv75GQ52W8rp6dtKGqN3o","name":"acidic-seaweed-starling","lat":"51.543878092054854","lng":"-0.11010856433704166","beac_rate":11.5,"ref_rss":"-118.26283124968558","w_N":20,"w_NE":2,"w_E":1,"w_SE":3,"w_S":9,"w_SW":1,"w_W":2,"w_NW":14},{"address":"112vW8xxvgr8bnEad389ChpXNxtwTMcrc2ZLfWdexqMWWUQh1NVw","name":"straight-sepia-wren","lat":"51.54427579613777","lng":"-0.19042200347307636","beac_rate":28,"ref_rss":"-111.6457036779236","w_N":2,"w_NE":0,"w_E":1,"w_SE":1,"w_S":2,"w_SW":1,"w_W":0,"w_NW":1},{"address":"11JSRvFJiTW4MJfjMp7YbZg4zHNazpov7AuLS8gydyvNT25MFym","name":"straight-hickory-mantaray","lat":"51.48369714771085","lng":"0.12823032810963414","beac_rate":8,"ref_rss":"-90.32805094935588","w_N":0,"w_NE":0,"w_E":0,"w_SE":19,"w_S":88,"w_SW":6,"w_W":0,"w_NW":1},{"address":"11Ci33aLq9KdzkvXtEXPjmmdPRKoFoumKD8MdbAmk2TsLzHxY3q","name":"curved-tweed-millipede","lat":"51.47832726317882","lng":"-0.10410282244741084","beac_rate":7,"ref_rss":"-112.0097334349541","w_N":28,"w_NE":2,"w_E":1,"w_SE":2,"w_S":4,"w_SW":6,"w_W":8,"w_NW":10},{"address":"112LWYxerhWcKguQ97eW28x7teit3hNWX1DpVcz3zjTYhdjZW1Ze","name":"hollow-turquoise-ostrich","lat":"51.46246489578995","lng":"-0.1077927871570649","beac_rate":20.5,"ref_rss":"-101.05341480770225","w_N":5,"w_NE":9,"w_E":1,"w_SE":2,"w_S":4,"w_SW":4,"w_W":4,"w_NW":3},{"address":"112W6FP6xG95WtAKSfQxhR12h5MiUtec1Q6s7zbMHPzxcPkfhaUt","name":"suave-hemp-crocodile","lat":"51.45462507352812","lng":"-0.1945202196394802","beac_rate":16.5,"ref_rss":"-99.43512086494158","w_N":1,"w_NE":5,"w_E":5,"w_SE":5,"w_S":3,"w_SW":2,"w_W":11,"w_NW":7},{"address":"112L4x8jvnnarvM4Hd7QWy5pFt9wzMTZkszzjd6VeF8j5YH4J4Sy","name":"tricky-mulberry-cricket","lat":"51.61529488024557","lng":"-0.1372148381075117","beac_rate":17.5,"ref_rss":"-99.80137590971204","w_N":30,"w_NE":1,"w_E":3,"w_SE":1,"w_S":4,"w_SW":7,"w_W":8,"w_NW":17},{"address":"11fy5Ckrdx1dCTDstXFvsbQBFjD9zUFAqbdydLEv6unfmXKFxBG","name":"calm-sky-ferret","lat":"51.54320641203221","lng":"-0.02274891414413273","beac_rate":10,"ref_rss":"-96.00363227776714","w_N":17,"w_NE":5,"w_E":7,"w_SE":19,"w_S":68,"w_SW":32,"w_W":10,"w_NW":25},{"address":"11WDofKjbUUEqGViShLziQVaXUZFipwUmicAwm4DxWpkjSTzWMR","name":"fantastic-lemon-gecko","lat":"51.527469844190804","lng":"-0.19695947912626197","beac_rate":9.5,"ref_rss":"-90.2466587671572","w_N":23,"w_NE":4,"w_E":8,"w_SE":11,"w_S":14,"w_SW":21,"w_W":6,"w_NW":12},{"address":"112AJkUYrmh1wwWEUSX5wG4YK9cRxuFj7gdi2cA4shTNa9XYqjTu","name":"quaint-mulberry-goose","lat":"51.4468153943614","lng":"-0.1521407741062299","beac_rate":25.5,"ref_rss":"-82.78402279960598","w_N":4,"w_NE":3,"w_E":0,"w_SE":0,"w_S":1,"w_SW":3,"w_W":1,"w_NW":1},{"address":"11Fwu3m5gaDU7Gf8MGRcUgzHYJjGLDd5WW4us2nhYedW6jC9SEg","name":"mammoth-macaroon-raccoon","lat":"51.5283018604641","lng":"-0.06527034727070885","beac_rate":8,"ref_rss":"-114.71292270003869","w_N":13,"w_NE":10,"w_E":6,"w_SE":8,"w_S":14,"w_SW":13,"w_W":18,"w_NW":18},{"address":"112MPekqCiXXXcz17zs2BrEAKSmBw3xCw5CLMGVjbBzxtUacBoDw","name":"round-oily-dolphin","lat":"51.448480503079104","lng":"-0.13503315791563528","beac_rate":18.5,"ref_rss":"-116.70789111142615","w_N":3,"w_NE":6,"w_E":2,"w_SE":6,"w_S":12,"w_SW":5,"w_W":1,"w_NW":1},{"address":"117TGcd7vSWhtdfg7aVUqXYkLCthBwpusar5cc9x89okdGTKKFL","name":"digital-eggshell-kitten","lat":"51.49602638571703","lng":"0.07366630126474154","beac_rate":40.5,"ref_rss":"-101.29027071498588","w_N":4,"w_NE":1,"w_E":1,"w_SE":3,"w_S":8,"w_SW":1,"w_W":2,"w_NW":4},{"address":"11WFFqPpVJDjpLMetMsHA3T2wTkdK4fmSHJCerp2d8pPE9DQz2v","name":"shambolic-orange-robin","lat":"51.49760771614843","lng":"-0.24391913918465202","beac_rate":27,"ref_rss":"-105.89193655632502","w_N":19,"w_NE":4,"w_E":2,"w_SE":5,"w_S":7,"w_SW":2,"w_W":5,"w_NW":11},{"address":"112RqAHpWm3vTJ7rLtpsgtw5nd2zfGMp3SPJA7miGYa1HFJfuQmc","name":"rich-maroon-moth","lat":"51.478801404650184","lng":"-0.11607719636668161","beac_rate":6,"ref_rss":"-102.7624053543087","w_N":30,"w_NE":13,"w_E":9,"w_SE":13,"w_S":27,"w_SW":6,"w_W":10,"w_NW":9},{"address":"11iL6yR4AZAPiVmQH8g6vSzaUzwtKbdDoP4TJP3QS9o3BENaVPt","name":"wide-blue-seahorse","lat":"51.47257116615578","lng":"-0.2089075937768664","beac_rate":50.5,"ref_rss":"-120.298516871736","w_N":8,"w_NE":7,"w_E":1,"w_SE":9,"w_S":6,"w_SW":4,"w_W":2,"w_NW":3},{"address":"112kauCYgthvxPkp4oXL8KgGurDgsunLoWpptcX4WXph3fd9roZh","name":"hidden-spruce-ape","lat":"51.4879955935672","lng":"-0.11030735855837374","beac_rate":17,"ref_rss":"-105.84290935821763","w_N":29,"w_NE":12,"w_E":2,"w_SE":2,"w_S":17,"w_SW":12,"w_W":17,"w_NW":20},{"address":"11js9n6HMn65W8rMV2fPmD8k5VVk5FNeophFozhhy24E5k9tsWJ","name":"festive-ash-tardigrade","lat":"51.47809508029751","lng":"-0.11614024106546658","beac_rate":7.5,"ref_rss":"-96.1751491278655","w_N":31,"w_NE":15,"w_E":6,"w_SE":11,"w_S":31,"w_SW":9,"w_W":10,"w_NW":12},{"address":"11ggJxKUDLJz353HJewaCQ7MSSGCLWaZbPS8CaK6XNZ7VvGnQC2","name":"trendy-olive-shark","lat":"51.51910995426857","lng":"-0.15806058342054782","beac_rate":42,"ref_rss":"-112.16233676821085","w_N":0,"w_NE":3,"w_E":2,"w_SE":4,"w_S":12,"w_SW":0,"w_W":0,"w_NW":1},