[{"address":"11znpbYcMuQ6PQZSBu2NDJYQ2ccdPPidCi96Cw4vTng61RXcZAt","name":"flat-pearl-huskie","lat":51.51871613,"lng":-0.1700248496,"beac_rate":0.8823529412,"ref_rss":-99.97382254,"w_N":20,"w_NE":3,"w_E":7,"w_SE":1,"w_S":2,"w_SW":0,"w_W":1,"w_NW":2,"nr_witn":36,"total_reward":0.7532613,"avg_reward":0.05021742},{"address":"112bH3qDEYYy6F8YBGwFcN37FjATeGLecbGx6vevdcJsCRnib2rU","name":"sneaky-mandarin-condor","lat":51.51828387,"lng":-0.1700125222,"beac_rate":1,"ref_rss":-107.2624531,"w_N":9,"w_NE":2,"w_E":5,"w_SE":2,"w_S":3,"w_SW":2,"w_W":0,"w_NW":3,"nr_witn":26,"total_reward":0.78948361,"avg_reward":0.05263224067},{"address":"11oyCLdeUnxRwNCMrdMbosMLYRXyG3Sk3nbARUapVV9W1DcFP5K","name":"fun-chartreuse-jaguar","lat":51.48418323,"lng":0.0807890924,"beac_rate":1,"ref_rss":-79.98451913,"w_N":1,"w_NE":4,"w_E":2,"w_SE":24,"w_S":13,"w_SW":1,"w_W":1,"w_NW":1,"nr_witn":47,"total_reward":10.41747197,"avg_reward":0.6944981313},{"address":"112cccxTWpaQjoMtm8VJHdLY5KtfrznQfg66htM5atevXgx5A2wX","name":"lone-viridian-hippo","lat":51.4952384,"lng":-0.18958445,"beac_rate":0.8309859155,"ref_rss":-105.8041322,"w_N":3,"w_NE":7,"w_E":0,"w_SE":4,"w_S":16,"w_SW":4,"w_W":1,"w_NW":5,"nr_witn":40,"total_reward":0.21594151,"avg_reward":0.01439610067},{"address":"11kpy4VQnfhrrC8gRMd7gF89SxEgjKhRW9aSFY7p6kBiKJ3dj2z","name":"fun-ebony-snake","lat":51.52864093,"lng":-0.1274425672,"beac_rate":0.9830508475,"ref_rss":-108.1959782,"w_N":28,"w_NE":11,"w_E":7,"w_SE":22,"w_S":19,"w_SW":3,"w_W":2,"w_NW":4,"nr_witn":96,"total_reward":0.71079637,"avg_reward":0.04738642467},{"address":"11xwiST1HHRcue29hN9QpVa2CJz9AvprjtpLVmDivRiZesy4gZ3","name":"round-cinnabar-sidewinder","lat":51.51907245,"lng":-0.1611978037,"beac_rate":0.9722222222,"ref_rss":-120.3632672,"w_N":3,"w_NE":4,"w_E":6,"w_SE":13,"w_S":12,"w_SW":4,"w_W":0,"w_NW":0,"nr_witn":42,"total_reward":0.59615177,"avg_reward":0.03974345133},{"address":"11g4hAJLPaGUSSfQM6bwwYLfoSkZv7w3YFhiMaoq4j6Whh5gqLQ","name":"generous-pink-hornet","lat":51.48985514,"lng":-0.205117834,"beac_rate":0.8540145985,"ref_rss":-106.8676854,"w_N":14,"w_NE":7,"w_E":3,"w_SE":4,"w_S":12,"w_SW":5,"w_W":2,"w_NW":4,"nr_witn":51,"total_reward":0.38827584,"avg_reward":0.025885056},{"address":"112wU2R3siCpSB6SBvAd3AhSKEBktHnPLEypF3nveGGi9VetKGE","name":"silly-heather-jay","lat":51.50105008,"lng":-0.297986674,"beac_rate":0.8045112782,"ref_rss":-98.05461842,"w_N":5,"w_NE":2,"w_E":4,"w_SE":3,"w_S":10,"w_SW":3,"w_W":1,"w_NW":10,"nr_witn":38,"total_reward":0.67194973,"avg_reward":0.04479664867},{"address":"11kariGG3YtB5T877TBtS3BjU9Vixu2JLwuxj1krqayu5Cb8Yxz","name":"expert-bubblegum-rooster","lat":51.48020122,"lng":-0.1209007856,"beac_rate":0.8461538462,"ref_rss":-98.2973097,"w_N":15,"w_NE":5,"w_E":1,"w_SE":4,"w_S":4,"w_SW":3,"w_W":6,"w_NW":10,"nr_witn":48,"total_reward":0.24098796,"avg_reward":0.016065864},{"address":"112QdohP3Fukvkt9mkMVfcKdi9kdDedbbpBhda5WPH1zC6sehJq","name":"big-indigo-nightingale","lat":51.50593733,"lng":-0.2153335795,"beac_rate":0.9263157895,"ref_rss":-97.52935553,"w_N":11,"w_NE":18,"w_E":13,"w_SE":7,"w_S":18,"w_SW":8,"w_W":5,"w_NW":5,"nr_witn":85,"total_reward":0.55999865,"avg_reward":0.03733324333},{"address":"112NMQbBZLwvbThgMBTu62BLBjrcFjGkyrLjr1GRqrB1wPpfC9Gq","name":"narrow-brunette-troll","lat":51.55134181,"lng":-0.1336083997,"beac_rate":0.9,"ref_rss":-116.6864301,"w_N":2,"w_NE":3,"w_E":0,"w_SE":1,"w_S":11,"w_SW":4,"w_W":5,"w_NW":8,"nr_witn":34,"total_reward":0.39239832,"avg_reward":0.026159888},{"address":"112hA6r362a2XNzrkLacXQrm68Vy4wiN23daBmdADX3xS3cwA3Mp","name":"sour-peach-goldfish","lat":51.48222255,"lng":-0.1461235528,"beac_rate":1,"ref_rss":-86.80042983,"w_N":3,"w_NE":8,"w_E":3,"w_SE":18,"w_S":14,"w_SW":7,"w_W":3,"w_NW":14,"nr_witn":70,"total_reward":2.65871044,"avg_reward":0.1772473627},{"address":"112cwcrB9TDn3pRVrYhmVgNKqdxs1ZrFjECEddUQE4dNV57YqHXL","name":"short-navy-mink","lat":51.59705599,"lng":-0.1998906249,"beac_rate":0.2181818182,"ref_rss":-115.7800848,"w_N":0,"w_NE":1,"w_E":0,"w_SE":1,"w_S":2,"w_SW":2,"w_W":3,"w_NW":1,"nr_witn":10,"total_reward":0.43485951,"avg_reward":0.028990634},{"address":"112gDhh2SVtJXT7Rq1zY4PPo1TmMDfeeKMBzSY5AFSwHpxYmyFiC","name":"docile-bamboo-blackbird","lat":51.49942409,"lng":-0.04990082539,"beac_rate":0.9436619718,"ref_rss":-107.2822195,"w_N":26,"w_NE":15,"w_E":18,"w_SE":23,"w_S":22,"w_SW":9,"w_W":4,"w_NW":8,"nr_witn":125,"total_reward":0.70276558,"avg_reward":0.04685103867},{"address":"1129TZLEZCbsr9hLtUkkQJzXykUsSSwxcSYKuS2hBtN4AThUNGod","name":"spicy-juniper-porcupine","lat":51.57008039,"lng":-0.09992318002,"beac_rate":1,"ref_rss":-86.88159134,"w_N":16,"w_NE":16,"w_E":9,"w_SE":13,"w_S":15,"w_SW":13,"w_W":12,"w_NW":19,"nr_witn":113,"total_reward":4.59537126,"avg_reward":0.306358084},{"address":"112QaXZFk8DruuQBJF5eBHeRkgMnEmw3dJYe8EAQD9bqEJ3Edeo7","name":"wide-indigo-toad","lat":51.53928411,"lng":-0.07579968415,"beac_rate":0.9230769231,"ref_rss":-73.88551013,"w_N":27,"w_NE":24,"w_E":14,"w_SE":8,"w_S":12,"w_SW":11,"w_W":12,"w_NW":33,"nr_witn":141,"total_reward":2.27642089,"avg_reward":0.1517613927},{"address":"112bCp7yDjcs3q5UzAhT7Q5oYnoMNrN8kR2ZV14MvBipKfxHEqAa","name":"brilliant-leather-koala","lat":51.56137205,"lng":-0.2563269784,"beac_rate":0.461928934,"ref_rss":-15.27796354,"w_N":0,"w_NE":0,"w_E":0,"w_SE":0,"w_S":2,"w_SW":0,"w_W":0,"w_NW":0,"nr_witn":2,"total_reward":0.29256855,"avg_reward":0.01950457},{"address":"112cHub1cngT4dkKZkEj3SRkm8ZjoD2RFatnDfEjZypqMph3hwp3","name":"festive-strawberry-dalmatian","lat":51.47684961,"lng":-0.1835236865,"beac_rate":0.8245614035,"ref_rss":-110.6620958,"w_N":6,"w_NE":6,"w_E":3,"w_SE":1,"w_S":8,"w_SW":3,"w_W":1,"w_NW":2,"nr_witn":30,"total_reward":0.22084557,"avg_reward":0.014723038},{"address":"11sDRMB565dTyzWNZgntvTjTh2aNUpZmj4buo98pYq6GE6Fmc2i","name":"nice-watermelon-liger","lat":51.45637366,"lng":0.0525599431,"beac_rate":1,"ref_rss":-78.61494393,"w_N":5,"w_NE":10,"w_E":21,"w_SE":92,"w_S":56,"w_SW":2,"w_W":4,"w_NW":1,"nr_witn":191,"total_reward":3.25072006,"avg_reward":0.2167146707},{"address":"11fCNG25T36kiVQFoq77pSMqwL1fKghcijX5xQzoDBiaoKf9B9U","name":"tall-inky-seal","lat":51.62198282,"lng":-0.1528715744,"beac_rate":0.5128205128,"ref_rss":-94.80899337,"w_N":5,"w_NE":3,"w_E":2,"w_SE":1,"w_S":2,"w_SW":0,"w_W":1,"w_NW":1,"nr_witn":15,"total_reward":0.49117301,"avg_reward":0.03274486733},{"address":"112kw2jGx1UrPXX1RUCpFAWv5gH2MQCjc4VzDbu8V5fabeNLmbEs","name":"shallow-burlap-scallop","lat":51.50111266,"lng":-0.08979056366,"beac_rate":0.8867924528,"ref_rss":-110.2906465,"w_N":6,"w_NE":0,"w_E":1,"w_SE":1,"w_S":1,"w_SW":4,"w_W":2,"w_NW":6,"nr_witn":21,"total_reward":0.18270779,"avg_reward":0.01218051933},{"address":"11QXWc8XRU1fkGLQUgzyh9j4NQTtKsvV342uaGBSFJrzQr9WLSX","name":"mysterious-saffron-cormorant","lat":51.48054325,"lng":-0.1111753101,"beac_rate":0.9387755102,"ref_rss":-99.21658215,"w_N":34,"w_NE":8,"w_E":5,"w_SE":3,"w_S":19,"w_SW":12,"w_W":9,"w_NW":13,"nr_witn":103,"total_reward":0.62657762,"avg_reward":0.04177184133},{"address":"112oiL2jsefeeXHQFSc3vSrz77F9P8mBFcnnpdkBnpfTPwPUiYQc","name":"macho-orange-rhino","lat":51.52769718,"lng":-0.1361696734,"beac_rate":0.925,"ref_rss":-95.86141384,"w_N":8,"w_NE":14,"w_E":7,"w_SE":11,"w_S":9,"w_SW":3,"w_W":0,"w_NW":2,"nr_witn":54,"total_reward":0.73327453,"avg_reward":0.04888496867},{"address":"112kBzPwF7XmuCUPsZV5xopKoW2gxG4PYbDxFKn4Vbq8ZkPV2xMe","name":"fierce-cobalt-pheasant","lat":51.59807732,"lng":-0.06184636814,"beac_rate":0.9,"ref_rss":-102.7662796,"w_N":16,"w_NE":5,"w_E":3,"w_SE":7,"w_S":16,"w_SW":5,"w_W":2,"w_NW":13,"nr_witn":67,"total_reward":0.94693381,"avg_reward":0.06312892067},{"address":"11awhgvDNNfLA8QcvWtxGXa4XqCs6zW9w8eEbcoqMDGDWKpnAxq","name":"low-bronze-fox","lat":51.51540419,"lng":-0.1934705968,"beac_rate":0.9259259259,"ref_rss":-102.2877959,"w_N":18,"w_NE":8,"w_E":12,"w_SE":16,"w_S":23,"w_SW":10,"w_W":7,"w_NW":5,"nr_witn":99,"total_reward":0.79624039,"avg_reward":0.05308269267},{"address":"118f9V8a67EcBVEKMpm1QrWwGg3QP3iC1om36NKfX3YBzda7hUA","name":"basic-tweed-gibbon","lat":51.58765606,"lng":-0.0437254088,"beac_rate":0.8666666667,"ref_rss":-97.14278182,"w_N":11,"w_NE":10,"w_E":4,"w_SE":20,"w_S":44,"w_SW":7,"w_W":5,"w_NW":17,"nr_witn":118,"total_reward":3.89507482,"avg_reward":0.2596716547},{"address":"112rGfaAqUnVRubyGBndVPCDPQAXRmUDhDgHM81vDyX2cqufzp14","name":"obedient-velvet-mink","lat":51.47852165,"lng":-0.1127696812,"beac_rate":0.9,"ref_rss":-96.6382519,"w_N":29,"w_NE":15,"w_E":5,"w_SE":10,"w_S":19,"w_SW":13,"w_W":15,"w_NW":10,"nr_witn":116,"total_reward":1.11830079,"avg_reward":0.074553386},{"address":"112B8YsuW71RJVwfj6Am8CEoqfo6Enygofned7K29WTS6iX6hyB6","name":"short-arctic-raccoon","lat":51.48064732,"lng":0.1325818182,"beac_rate":1,"ref_rss":-86.59722513,"w_N":0,"w_NE":0,"w_E":0,"w_SE":13,"w_S":33,"w_SW":3,"w_W":0,"w_NW":0,"nr_witn":49,"total_reward":16.47995062,"avg_reward":1.098663375},{"address":"112w7vejhZf6vXeuQyyfQnBho1Y9Hjj9Lj5j2NbBMaddTuQx5ft4","name":"suave-linen-penguin","lat":51.54623073,"lng":-0.1012539206,"beac_rate":1,"ref_rss":-97.5488076,"w_N":1,"w_NE":1,"w_E":1,"w_SE":2,"w_S":3,"w_SW":1,"w_W":1,"w_NW":2,"nr_witn":12,"total_reward":0.62063689,"avg_reward":0.04137579267},{"address":"112JTnnW3BA3eof4nPAqJUg3BcSd3muBRmDGFyFF57Y9kt91yMxk","name":"future-stone-badger","lat":51.45893595,"lng":-0.1232001459,"beac_rate":0.9032258065,"ref_rss":-80.95151399,"w_N":19,"w_NE":25,"w_E":11,"w_SE":17,"w_S":5,"w_SW":2,"w_W":3,"w_NW":4,"nr_witn":86,"total_reward":1.15604747,"avg_reward":0.07706983133},{"address":"112wNjQfXr76Ksw53fPJoRMoYAwZsf8nYpcepag3B3SLHGduJHoa","name":"genuine-punch-goose","lat":51.46689059,"lng":-0.1915733782,"beac_rate":0.88,"ref_rss":-91.5294162,"w_N":21,"w_NE":21,"w_E":23,"w_SE":27,"w_S":19,"w_SW":5,"w_W":8,"w_NW":12,"nr_witn":136,"total_reward":2.00569705,"avg_reward":0.1337131367},{"address":"11dDrDm1RAtTcjHvN75S7MZQcAeHZhTyH1eek19bgrQXWr8knCH","name":"big-foggy-seagull","lat":51.45714175,"lng":-0.04837404325,"beac_rate":0.7941176471,"ref_rss":-105.7422514,"w_N":20,"w_NE":28,"w_E":27,"w_SE":12,"w_S":22,"w_SW":4,"w_W":1,"w_NW":2,"nr_witn":116,"total_reward":0.67304891,"avg_reward":0.04486992733},{"address":"112nfYhcwG2S5Z76nHn46Wvu3KpvEXhUYvni2cuj3qDwi8xx9fCj","name":"cuddly-menthol-pike","lat":51.51255322,"lng":-0.1255924831,"beac_rate":0.9523809524,"ref_rss":-103.4340193,"w_N":44,"w_NE":23,"w_E":22,"w_SE":27,"w_S":20,"w_SW":13,"w_W":16,"w_NW":23,"nr_witn":188,"total_reward":3.99548119,"avg_reward":0.2663654127},{"address":"11eRCEej2NX8ui6dDRn79i9yzjQYCU3y21X9GVoEgUBCUSe4DKy","name":"fierce-iris-jaguar","lat":51.4549334,"lng":-0.1971697964,"beac_rate":0.8260869565,"ref_rss":-105.6056411,"w_N":5,"w_NE":3,"w_E":3,"w_SE":5,"w_S":15,"w_SW":6,"w_W":6,"w_NW":4,"nr_witn":47,"total_reward":0.64041941,"avg_reward":0.04269462733},{"address":"1125PknvMza4ZAsmG1GYBzNyS82ZAuupC1Zgy7KX8SQ8GtBaWUN1","name":"trendy-myrtle-hippo","lat":51.4137921,"lng":-0.1243430088,"beac_rate":1,"ref_rss":-116.4852006,"w_N":0,"w_NE":8,"w_E":2,"w_SE":7,"w_S":0,"w_SW":0,"w_W":0,"w_NW":0,"nr_witn":17,"total_reward":11.43334594,"avg_reward":0.7622230627},{"address":"11WgFqjyMNirp13x6pPSiUCP3ny39deofvMWsb2qZfU5z1vb38z","name":"careful-canvas-rhino","lat":51.52441704,"lng":-0.2009194602,"beac_rate":0.9411764706,"ref_rss":-104.7432563,"w_N":3,"w_NE":4,"w_E":11,"w_SE":11,"w_S":7,"w_SW":6,"w_W":2,"w_NW":1,"nr_witn":45,"total_reward":0.51523456,"avg_reward":0.03434897067},{"address":"116hy15KFW67rotDCwck8eFA5RAStUtxFjJPwE3q22GkuPNmuRe","name":"broad-cherry-wombat","lat":51.54490825,"lng":0.01144911051,"beac_rate":0.8425925926,"ref_rss":-106.2874493,"w_N":5,"w_NE":5,"w_E":2,"w_SE":15,"w_S":7,"w_SW":5,"w_W":1,"w_NW":2,"nr_witn":42,"total_reward":0.0952541,"avg_reward":0.006350273333},{"address":"112eGyqom1kDctvknSLmJgWpHuQwPuo6K8Zcu2QKeDVEybY1W1EM","name":"zany-tweed-dachshund","lat":51.54123491,"lng":-0.02212015016,"beac_rate":0.8933333333,"ref_rss":-93.15031612,"w_N":5,"w_NE":10,"w_E":6,"w_SE":14,"w_S":10,"w_SW":1,"w_W":3,"w_NW":5,"nr_witn":54,"total_reward":0.33566385,"avg_reward":0.02237759},{"address":"113FoyWXtehQn1WtGktvoBbVQ3ngH3dB4JERjXwQ3ha8Xa3FnJd","name":"suave-glass-rat","lat":51.54222022,"lng":-0.1985444555,"beac_rate":0.8592592593,"ref_rss":-120.9688505,"w_N":7,"w_NE":15,"w_E":9,"w_SE":21,"w_S":15,"w_SW":4,"w_W":2,"w_NW":3,"nr_witn":66,"total_reward":0.37711263,"avg_reward":0.025140842},{"address":"11yafriMviwEuspUCaYJWituQHcPgAyvnaPUm5ZRbLZYWMYUsfp","name":"rich-rouge-woodpecker","lat":51.52974169,"lng":-0.07281951039,"beac_rate":1,"ref_rss":-90.99682965,"w_N":23,"w_NE":15,"w_E":11,"w_SE":7,"w_S":17,"w_SW":10,"w_W":9,"w_NW":20,"nr_witn":112,"total_reward":2.63653579,"avg_reward":0.1757690527},{"address":"115vFmrMwnNyiXP4nH7WJS6TLUgvPDRHGhgzan5HN1UnZhrYJcr","name":"sour-licorice-viper","lat":51.50035634,"lng":-0.2246694207,"beac_rate":1,"ref_rss":-114.0738241,"w_N":8,"w_NE":3,"w_E":0,"w_SE":1,"w_S":5,"w_SW":3,"w_W":1,"w_NW":3,"nr_witn":24,"total_reward":5.92472397,"avg_reward":0.394981598},{"address":"11LaMtjzFsjRo54ggwCTYajVqq7RccswaW7vyT87wN38K2L4ont","name":"original-jade-trout","lat":51.54631418,"lng":-0.09588843457,"beac_rate":0.8518518519,"ref_rss":-106.0282126,"w_N":9,"w_NE":7,"w_E":0,"w_SE":5,"w_S":8,"w_SW":2,"w_W":1,"w_NW":4,"nr_witn":36,"total_reward":0.48863083,"avg_reward":0.03257538867},{"address":"112KYvXXpZpSGzSvvuGmLT4kbKZ4xHL5p9KgefDxtbwaSYegdBQT","name":"tall-candy-falcon","lat":51.50660222,"lng":-0.2563345392,"beac_rate":1,"ref_rss":-98.95545913,"w_N":41,"w_NE":7,"w_E":4,"w_SE":2,"w_S":5,"w_SW":1,"w_W":5,"w_NW":25,"nr_witn":90,"total_reward":1.52328944,"avg_reward":0.1015526293},{"address":"112BxRZbCKqN9sLM12oR9zjzB7FttzSN43ES3YUbdDv8T3HCxVCK","name":"tart-pastel-seal","lat":51.48550779,"lng":-0.1359827128,"beac_rate":0.9210526316,"ref_rss":-99.10296619,"w_N":21,"w_NE":12,"w_E":15,"w_SE":24,"w_S":23,"w_SW":11,"w_W":4,"w_NW":14,"nr_witn":124,"total_reward":1.53702371,"avg_reward":0.1024682473},{"address":"11sAkMVCmUjm8yzVViySAfrHEov3Kf7kykC5xjf1VwRrLm6qgrh","name":"daring-mulberry-puma","lat":51.54827432,"lng":-0.1274098958,"beac_rate":0.8765432099,"ref_rss":-103.7794791,"w_N":3,"w_NE":9,"w_E":3,"w_SE":8,"w_S":19,"w_SW":3,"w_W":3,"w_NW":5,"nr_witn":53,"total_reward":0.75332594,"avg_reward":0.05022172933},{"address":"11dvwQgbYCVxEidyZ13Thj46tNYdYbynrWTVvqdC4Ttj7DamDts","name":"trendy-ginger-starling","lat":51.46220352,"lng":-0.2255273042,"beac_rate":1,"ref_rss":-110.3866497,"w_N":2,"w_NE":8,"w_E":1,"w_SE":7,"w_S":1,"w_SW":0,"w_W":0,"w_NW":2,"nr_witn":21,"total_reward":5.75853999,"avg_reward":0.383902666},{"address":"11UysEzXpAS3M42hGtPhSSAC1yY4kDa1w2Wj6HGpp1jQKtbdje2","name":"oblong-wool-panther","lat":51.45905171,"lng":-0.1230383991,"beac_rate":0.9393939394,"ref_rss":-75.52525794,"w_N":22,"w_NE":18,"w_E":8,"w_SE":12,"w_S":6,"w_SW":5,"w_W":5,"w_NW":6,"nr_witn":82,"total_reward":1.04422233,"avg_reward":0.069614822},{"address":"11UfxcgVC5bqGWpBypXabrcnaZ4qdXgXyMZRpKdjZYcxHEvkAs2","name":"radiant-cornflower-bear","lat":51.41601584,"lng":-0.07537930325,"beac_rate":0.9428571429,"ref_rss":-122.440639,"w_N":21,"w_NE":2,"w_E":12,"w_SE":10,"w_S":9,"w_SW":1,"w_W":2,"w_NW":3,"nr_witn":60,"total_reward":1.56366786,"avg_reward":0.104244524},{"address":"1128eztchdNJ8Yxr8tTbE1MC7yUDekBnwkRnHYhHXgcJpSEzLmkJ","name":"icy-chrome-rabbit","lat":51.41727945,"lng":-0.188411459,"beac_rate":0.9090909091,"ref_rss":-103.2061456,"w_N":13,"w_NE":10,"w_E":11,"w_SE":10,"w_S":8,"w_SW":3,"w_W":0,"w_NW":5,"nr_witn":60,"total_reward":1.22663563,"avg_reward":0.08177570867},{"address":"112VzEa7yH7QCsopoDbGQooya8wVayH1mY5DREhJ1Vj4oF1pDDQH","name":"stable-honeysuckle-crane","lat":51.5163722,"lng":-0.3240929286,"beac_rate":0.8173076923,"ref_rss":-82.65711143,"w_N":2,"w_NE":2,"w_E":0,"w_SE":4,"w_S":5,"w_SW":0,"w_W":5,"w_NW":4,"nr_witn":22,"total_reward":0.7800331,"avg_reward":0.05200220667},{"address":"11ioDBGDhxgrRFLpWJStTSLPNsh3fivdG2vAe1NZzqmrihFVrCe","name":"precise-turquoise-hamster","lat":51.48654059,"lng":-0.213444067,"beac_rate":0.9375,"ref_rss":-102.1750258,"w_N":5,"w_NE":10,"w_E":2,"w_SE":4,"w_S":10,"w_SW":5,"w_W":2,"w_NW":8,"nr_witn":46,"total_reward":0.84944462,"avg_reward":0.05662964133},{"address":"112TUrkUymAbCujWLtizu5H6k1vPdiQwFxE3PDDTchNziDv69ocJ","name":"soft-felt-sparrow","lat":51.51539137,"lng":-0.3344003489,"beac_rate":0.9166666667,"ref_rss":-117.8667306,"w_N":18,"w_NE":3,"w_E":1,"w_SE":2,"w_S":1,"w_SW":13,"w_W":3,"w_NW":11,"nr_witn":45,"total_reward":0.46895913,"avg_reward":0.031263942},{"address":"11TmA4SY1JT1KpnHTMVNANRQ6JbPjABcxb9BwX6UM4R4Uogu122","name":"fast-chrome-deer","lat":51.46851577,"lng":-0.03861723246,"beac_rate":0.8151260504,"ref_rss":-109.6744452,"w_N":16,"w_NE":16,"w_E":8,"w_SE":2,"w_S":4,"w_SW":2,"w_W":1,"w_NW":2,"nr_witn":51,"total_reward":0.50596155,"avg_reward":0.03373077},{"address":"1167cD6JcYoMgxUh8mYawobkD37aXwkpsNtdTrmMx9SXKDNJuh2","name":"creamy-grape-cricket","lat":51.53040283,"lng":-0.2175386025,"beac_rate":0.6084656085,"ref_rss":-129.7548659,"w_N":7,"w_NE":0,"w_E":1,"w_SE":2,"w_S":1,"w_SW":3,"w_W":2,"w_NW":3,"nr_witn":19,"total_reward":0.24632056,"avg_reward":0.01642137067},{"address":"11FBStqaiqr3xKZ1s4u9edF8XotvFNe6vhWprfvHzAxqQ7mArqR","name":"real-blush-seagull","lat":51.49912434,"lng":-0.1083022573,"beac_rate":0.8961038961,"ref_rss":-99.69561467,"w_N":38,"w_NE":6,"w_E":10,"w_SE":14,"w_S":11,"w_SW":15,"w_W":35,"w_NW":20,"nr_witn":149,"total_reward":1.08066096,"avg_reward":0.072044064},{"address":"11gzj9AGqCfzCpTRdHy8YuozB2DNwvknxeBTSBSnKrBW2qedHdt","name":"modern-mint-shrimp","lat":51.48475437,"lng":0.09238775833,"beac_rate":1,"ref_rss":-70.63275086,"w_N":5,"w_NE":3,"w_E":1,"w_SE":48,"w_S":28,"w_SW":1,"w_W":0,"w_NW":0,"nr_witn":86,"total_reward":9.34081208,"avg_reward":0.6227208053},{"address":"11qkMCNbcsWzVdXMxaevLWAakxMo5iuBqTaEwjBXjZ6qBnpq2c4","name":"upbeat-macaroon-mammoth","lat":51.50008172,"lng":-0.2373834338,"beac_rate":0.8317757009,"ref_rss":-113.7756697,"w_N":12,"w_NE":7,"w_E":3,"w_SE":16,"w_S":15,"w_SW":6,"w_W":6,"w_NW":5,"nr_witn":70,"total_reward":0.54925863,"avg_reward":0.036617242},{"address":"1123nCBpteedx3vAreiruJTfBFhok9tB8kpEPkmdbFDLRfRmLJm2","name":"calm-canvas-goldfish","lat":51.54065996,"lng":-0.1902348808,"beac_rate":0.4954954955,"ref_rss":-123.5639482,"w_N":3,"w_NE":0,"w_E":1,"w_SE":1,"w_S":3,"w_SW":1,"w_W":0,"w_NW":1,"nr_witn":10,"total_reward":0.13501806,"avg_reward":0.009001204},{"address":"112hauiD1muLfcUpgtF1aggQvb8Myb2YrkZr5K4HBRBEgEUXSwtb","name":"dapper-rosewood-mole","lat":51.49443705,"lng":-0.310594986,"beac_rate":0.7633587786,"ref_rss":-104.3870367,"w_N":1,"w_NE":5,"w_E":2,"w_SE":2,"w_S":1,"w_SW":0,"w_W":0,"w_NW":0,"nr_witn":11,"total_reward":0.68416887,"avg_reward":0.045611258},{"address":"11doFWpkNsyrkh1JCtXF7Uf4L6RpRVv9go6dzwVcwekmpfm2QzV","name":"dizzy-walnut-millipede","lat":51.54108153,"lng":-0.226366603,"beac_rate":0.9318181818,"ref_rss":-108.5128937,"w_N":6,"w_NE":3,"w_E":5,"w_SE":3,"w_S":6,"w_SW":2,"w_W":2,"w_NW":4,"nr_witn":31,"total_reward":0.23002952,"avg_reward":0.01533530133},{"address":"1124zbWUdfgqyv1rZXJ8MKRA9NbzzfVAq5UtRXembvBTF4PsKw2v","name":"swift-gunmetal-osprey","lat":51.53651003,"lng":-0.1432714048,"beac_rate":0.9032258065,"ref_rss":-120.831009,"w_N":11,"w_NE":12,"w_E":3,"w_SE":9,"w_S":13,"w_SW":1,"w_W":4,"w_NW":4,"nr_witn":57,"total_reward":0.88630117,"avg_reward":0.05908674467},{"address":"112ETFkGHW2iyTjwa7j2k6vi6CXDZj4ho9b9WauiV5sAvWhaU41C","name":"muscular-pearl-bull","lat":51.51475099,"lng":-0.2131959615,"beac_rate":0.8717948718,"ref_rss":-103.1375766,"w_N":18,"w_NE":14,"w_E":5,"w_SE":5,"w_S":21,"w_SW":9,"w_W":7,"w_NW":5,"nr_witn":84,"total_reward":0.34016442,"avg_reward":0.022677628},{"address":"112jEroWfpdnuhXNH17ALZjbsetcuZftd27pY2bMYZMMMnABcbiy","name":"warm-plastic-lemur","lat":51.55678632,"lng":-0.2445274496,"beac_rate":0.85,"ref_rss":-99.43459134,"w_N":48,"w_NE":10,"w_E":7,"w_SE":8,"w_S":3,"w_SW":29,"w_W":8,"w_NW":16,"nr_witn":129,"total_reward":2.06941783,"avg_reward":0.1379611887},{"address":"112BspwgQffiGa7ycs8QzVN8AStx2YSC43gm7SWJXzdhu4bWyaHZ","name":"little-amethyst-armadillo","lat":51.52149966,"lng":-0.3391417973,"beac_rate":0.972972973,"ref_rss":-81.61851654,"w_N":7,"w_NE":7,"w_E":0,"w_SE":0,"w_S":2,"w_SW":0,"w_W":1,"w_NW":14,"nr_witn":31,"total_reward":1.72488269,"avg_reward":0.1149921793},{"address":"112iwDUtYuET2emXhqbzqzyygBrZgezZphPmgEVKcuaBjhZLH4cD","name":"decent-sepia-platypus","lat":51.51442327,"lng":-0.06960340232,"beac_rate":0.734375,"ref_rss":-101.7158178,"w_N":7,"w_NE":8,"w_E":4,"w_SE":3,"w_S":0,"w_SW":0,"w_W":1,"w_NW":3,"nr_witn":26,"total_reward":0.17891006,"avg_reward":0.01192733733},{"address":"112dRJJ6pC7EmRLxDnxYAXW2yiRAmW8aNyYDXfaYbCESwDBJZDSF","name":"smooth-mulberry-mole","lat":51.48500425,"lng":-0.08366289897,"beac_rate":0.7981651376,"ref_rss":-113.8396234,"w_N":4,"w_NE":2,"w_E":1,"w_SE":1,"w_S":9,"w_SW":8,"w_W":3,"w_NW":3,"nr_witn":31,"total_reward":0.48264507,"avg_reward":0.032176338},{"address":"11nGMyFbb9Hsj3iMKg8ee6PoW2ky1gVUFZ25WSpR9F7Yo8ZrMLC","name":"handsome-leather-rook","lat":51.48509261,"lng":-0.1797153821,"beac_rate":0.8611111111,"ref_rss":-110.7150605,"w_N":5,"w_NE":1,"w_E":0,"w_SE":3,"w_S":6,"w_SW":6,"w_W":4,"w_NW":4,"nr_witn":29,"total_reward":0.4405464,"avg_reward":0.02936976},{"address":"1128KM6YGrDFSf5id3M97WsAkEHB8fSK6bfzUxvCQ9okzN5PRn1W","name":"stale-hazel-bird","lat":51.45765635,"lng":-0.1425472884,"beac_rate":1,"ref_rss":-102.9138889,"w_N":32,"w_NE":10,"w_E":10,"w_SE":18,"w_S":4,"w_SW":1,"w_W":2,"w_NW":12,"nr_witn":89,"total_reward":2.24243372,"avg_reward":0.1494955813},{"address":"11KsZdK3NXV8kYzeA9e3P3kSYTFp6LVe1krn9n4F4MG7WTUZSz3","name":"magnificent-orange-llama","lat":51.42343384,"lng":-0.06009006944,"beac_rate":0.837398374,"ref_rss":-120.2238196,"w_N":22,"w_NE":8,"w_E":14,"w_SE":2,"w_S":14,"w_SW":0,"w_W":2,"w_NW":0,"nr_witn":62,"total_reward":0.7477143,"avg_reward":0.04984762},{"address":"118DKjT5ZyfatiLvB1y6fKZHvGkjMbmisJt7kkZebpvXtF8fRX4","name":"main-felt-haddock","lat":51.59998954,"lng":-0.03380612825,"beac_rate":0.8947368421,"ref_rss":-89.14292224,"w_N":7,"w_NE":8,"w_E":1,"w_SE":6,"w_S":29,"w_SW":15,"w_W":17,"w_NW":13,"nr_witn":96,"total_reward":2.08329623,"avg_reward":0.1388864153},{"address":"112eKBiPobmBcYi5RNeCF9cfZ1dooGsvHP1TkgQ1F73QPcG3tKXz","name":"quaint-myrtle-cyborg","lat":51.51660603,"lng":-0.07981186429,"beac_rate":0.8222222222,"ref_rss":-165.7526381,"w_N":0,"w_NE":0,"w_E":0,"w_SE":2,"w_S":7,"w_SW":0,"w_W":0,"w_NW":0,"nr_witn":9,"total_reward":1.26498548,"avg_reward":0.08433236533},{"address":"112dCsx689CuvAb6mv4CC4CejTFDmiP2BFUE63iwJChpLBHuH8qe","name":"fancy-turquoise-goat","lat":51.56381044,"lng":0.04389318447,"beac_rate":0.6321243523,"ref_rss":-146.857438,"w_N":0,"w_NE":0,"w_E":0,"w_SE":0,"w_S":4,"w_SW":2,"w_W":0,"w_NW":0,"nr_witn":6,"total_reward":0.33626035,"avg_reward":0.02241735667},{"address":"11n8A2wdS5APEbfMhQUiHbvY6yVgzJpo3cM3zSw7Vw1ZPzHFBxT","name":"salty-tangelo-panda","lat":51.43880505,"lng":-0.1045074549,"beac_rate":0.8387096774,"ref_rss":-93.54983643,"w_N":0,"w_NE":0,"w_E":4,"w_SE":4,"w_S":3,"w_SW":1,"w_W":3,"w_NW":2,"nr_witn":17,"total_reward":1.24411986,"avg_reward":0.082941324},{"address":"112LiYPP5cBima4MxMzUc9J9QtsM6HcHUKCdcMK7tZwv78fmzppC","name":"radiant-charcoal-eagle","lat":51.47270641,"lng":-0.0321325524,"beac_rate":0.9473684211,"ref_rss":-105.3238195,"w_N":20,"w_NE":28,"w_E":25,"w_SE":12,"w_S":22,"w_SW":5,"w_W":5,"w_NW":8,"nr_witn":125,"total_reward":0.4286056,"avg_reward":0.02857370667},{"address":"11Deg9U3kKs2cbcM9kNXecp9ZFv29dRpH1eVXrQ6XNMLhZK3z3C","name":"immense-mossy-copperhead","lat":51.48466965,"lng":-0.1260573928,"beac_rate":0.9322033898,"ref_rss":-96.21454465,"w_N":80,"w_NE":16,"w_E":5,"w_SE":7,"w_S":21,"w_SW":13,"w_W":29,"w_NW":49,"nr_witn":220,"total_reward":0.72596359,"avg_reward":0.04839757267},{"address":"112bALYiftyn3b6KDi2NAWvardYptAjb7ZmDo2DQJGJwZFLG8EMU","name":"small-ginger-whale","lat":51.54047537,"lng":-0.1941963073,"beac_rate":0.8311688312,"ref_rss":-98.7278036,"w_N":4,"w_NE":2,"w_E":7,"w_SE":17,"w_S":10,"w_SW":6,"w_W":3,"w_NW":3,"nr_witn":52,"total_reward":0.77577497,"avg_reward":0.05171833133},{"address":"11wjYmY4zGnZLhFJuCsARLWu1vn8nSR7UxXu72cUR9PDcJRBRTi","name":"lone-scarlet-terrier","lat":51.5716077,"lng":-0.07708191725,"beac_rate":0.5340314136,"ref_rss":-93.87032414,"w_N":4,"w_NE":2,"w_E":0,"w_SE":3,"w_S":3,"w_SW":0,"w_W":1,"w_NW":3,"nr_witn":16,"total_reward":0.16930186,"avg_reward":0.01128679067},{"address":"112UuVkcg8H7ppZbjjEix8M3PjLzBNAYDF97YyYVvcP1J97euWJk","name":"great-sky-panther","lat":51.53530443,"lng":-0.1471197363,"beac_rate":1,"ref_rss":-102.6095784,"w_N":19,"w_NE":15,"w_E":9,"w_SE":17,"w_S":21,"w_SW":8,"w_W":2,"w_NW":14,"nr_witn":105,"total_reward":4.71143942,"avg_reward":0.3140959613},{"address":"11XK451zm1FX1FwrAiuQqFj5BaUBQPtbgq8bjBMHBhjxNX323Fs","name":"itchy-sage-tardigrade","lat":51.59925382,"lng":-0.04535285781,"beac_rate":0.873015873,"ref_rss":-74.67865633,"w_N":18,"w_NE":7,"w_E":0,"w_SE":4,"w_S":16,"w_SW":10,"w_W":7,"w_NW":12,"nr_witn":74,"total_reward":1.36292857,"avg_reward":0.09086190467},{"address":"112Ck7AUsspCPs4P9cw1msABGzDiEbBp3kSXZbZP783tx1X1g69r","name":"mysterious-dijon-fish","lat":51.47366421,"lng":-0.1833496517,"beac_rate":0.8545454545,"ref_rss":-110.5695542,"w_N":7,"w_NE":1,"w_E":0,"w_SE":5,"w_S":10,"w_SW":7,"w_W":2,"w_NW":1,"nr_witn":33,"total_reward":0.59785727,"avg_reward":0.03985715133},{"address":"112gu8XfTBiGUv3eqJYGY8cj8s78ipGmoRZ2AjZUzqDVTNckqXpv","name":"quick-walnut-toad","lat":51.5224068,"lng":0.02306884944,"beac_rate":1,"ref_rss":-93.2789186,"w_N":24,"w_NE":3,"w_E":7,"w_SE":21,"w_S":17,"w_SW":22,"w_W":12,"w_NW":35,"nr_witn":141,"total_reward":1.83583946,"avg_reward":0.1223892973},{"address":"112aS1HHKongcHR2KQtMKm5ZsAkmN3ySjP1eY7qnywea4eL5KPR","name":"genuine-ruby-wallaby","lat":51.48753914,"lng":0.08210850397,"beac_rate":0.5,"ref_rss":-52.39746866,"w_N":2,"w_NE":1,"w_E":1,"w_SE":3,"w_S":0,"w_SW":0,"w_W":0,"w_NW":0,"nr_witn":7,"total_reward":5.67173391,"avg_reward":0.378115594},{"address":"113rHbPy9DQ1eAcB3jBnvaAqSSj5QS68quAiemX6bu5RNbcBUNg","name":"icy-champagne-anteater","lat":51.45963836,"lng":-0.1139003172,"beac_rate":0.2156862745,"ref_rss":-103.2579212,"w_N":4,"w_NE":1,"w_E":0,"w_SE":2,"w_S":2,"w_SW":1,"w_W":0,"w_NW":2,"nr_witn":12,"total_reward":0.27423763,"avg_reward":0.01828250867},{"address":"112ummSGzPbvt1GDwiujqP2p3uHZ5bKVVUvE9yria9ZGnHggCRxu","name":"glamorous-taupe-mustang","lat":51.47908176,"lng":-0.1135275299,"beac_rate":0.1935483871,"ref_rss":-97.36502723,"w_N":7,"w_NE":4,"w_E":2,"w_SE":3,"w_S":4,"w_SW":2,"w_W":3,"w_NW":10,"nr_witn":35,"total_reward":0.3669197,"avg_reward":0.02446131333},{"address":"112LCHqpJ624rMD8JrJ9Lc2TDwAcWtx8p7R4m1nka4pJRdJ9Z9Tz","name":"genuine-taupe-woodpecker","lat":51.5205235,"lng":-0.09345315005,"beac_rate":1,"ref_rss":-93.73265578,"w_N":25,"w_NE":15,"w_E":13,"w_SE":26,"w_S":19,"w_SW":2,"w_W":5,"w_NW":9,"nr_witn":114,"total_reward":2.18851966,"avg_reward":0.1459013107},{"address":"114WxMAmpXdDQ67kS7wiYY7EhBefFhQug27ZvBPf95aUq8qM4Rg","name":"able-infrared-rabbit","lat":51.5163345,"lng":-0.1955627074,"beac_rate":0.8709677419,"ref_rss":-109.8980662,"w_N":10,"w_NE":3,"w_E":4,"w_SE":4,"w_S":14,"w_SW":5,"w_W":3,"w_NW":5,"nr_witn":48,"total_reward":0.5758711,"avg_reward":0.03839140667},{"address":"1126U3y22fRTBNWXGxRK7LAqQQ6PbAG1u6SH24gM8Z82eDydCqTS","name":"generous-garnet-orca","lat":51.5240416,"lng":-0.06383631229,"beac_rate":0.8613138686,"ref_rss":-104.6361027,"w_N":13,"w_NE":13,"w_E":6,"w_SE":10,"w_S":6,"w_SW":6,"w_W":6,"w_NW":10,"nr_witn":70,"total_reward":0.35063649,"avg_reward":0.023375766},{"address":"112kWoHkQMNpGZBMjdtztb8TdLfmH4vsJWxazSK2ShpiNvrbt71f","name":"merry-glossy-troll","lat":51.54917156,"lng":-0.2672078676,"beac_rate":1,"ref_rss":-99.46233953,"w_N":20,"w_NE":1,"w_E":0,"w_SE":0,"w_S":2,"w_SW":7,"w_W":9,"w_NW":4,"nr_witn":43,"total_reward":4.00364579,"avg_reward":0.2669097193},{"address":"11jmyHW34B1tiWRPKDxrAmH2sR7pb2dnHiZ9bpGLdQnTLqAu1nx","name":"clumsy-infrared-haddock","lat":51.48607673,"lng":-0.1737173338,"beac_rate":0.587628866,"ref_rss":-99.39301413,"w_N":1,"w_NE":0,"w_E":0,"w_SE":1,"w_S":1,"w_SW":3,"w_W":1,"w_NW":0,"nr_witn":7,"total_reward":0.01568419,"avg_reward":0.001045612667},{"address":"113dhjEAg55ozDSdonsM1gb9JuhdLcxQVFyaH5nJGA4WjMzVR9e","name":"shallow-walnut-yak","lat":51.49108935,"lng":-0.2443857444,"beac_rate":1,"ref_rss":-106.3781397,"w_N":1,"w_NE":0,"w_E":0,"w_SE":2,"w_S":2,"w_SW":0,"w_W":1,"w_NW":2,"nr_witn":8,"total_reward":12.17132977,"avg_reward":0.8114219847},{"address":"11iaKzxfJu7hWHBy8NcntsaAAq9pW85iG48e5f1oZmfrCv5HsJF","name":"glorious-rainbow-tuna","lat":51.51022334,"lng":-0.2093459126,"beac_rate":0.4583333333,"ref_rss":-108.9752311,"w_N":7,"w_NE":4,"w_E":5,"w_SE":6,"w_S":10,"w_SW":9,"w_W":3,"w_NW":2,"nr_witn":46,"total_reward":0.39845687,"avg_reward":0.02656379133},{"address":"112ojxF5BcWK4xSxCuxabxhTCqCGuAvZv1adTMfyd9TeGRZAi5Dq","name":"dry-vanilla-blackbird","lat":51.48145186,"lng":-0.1777124653,"beac_rate":1,"ref_rss":-110.7762987,"w_N":23,"w_NE":0,"w_E":0,"w_SE":5,"w_S":6,"w_SW":7,"w_W":3,"w_NW":6,"nr_witn":50,"total_reward":1.96638125,"avg_reward":0.1310920833},{"address":"114nDxKSGR3t5QD2k6iX8RW9dpyUDbHqooC9fkyK6cV5g41pSHA","name":"massive-felt-sparrow","lat":51.49327618,"lng":-0.1713636571,"beac_rate":0.5190839695,"ref_rss":-101.1916802,"w_N":4,"w_NE":0,"w_E":1,"w_SE":0,"w_S":0,"w_SW":1,"w_W":0,"w_NW":4,"nr_witn":10,"total_reward":0.20988189,"avg_reward":0.013992126},{"address":"11zRfCQxddKMFZtUBFgua47JY5b94QHaiX5VPwVoNEpfai6niog","name":"cheesy-opaque-vulture","lat":51.43990023,"lng":-0.1100604922,"beac_rate":0.8725490196,"ref_rss":-104.329003,"w_N":7,"w_NE":2,"w_E":1,"w_SE":0,"w_S":1,"w_SW":1,"w_W":1,"w_NW":4,"nr_witn":17,"total_reward":0.75862484,"avg_reward":0.05057498933},{"address":"112DasDRnNyMvPsKLSgeFiNzQBYKvuk2UTk52XUxa9zy1udzdzZX","name":"lively-watermelon-cow","lat":51.45920664,"lng":-0.1868954697,"beac_rate":0.8695652174,"ref_rss":-107.4998863,"w_N":10,"w_NE":14,"w_E":11,"w_SE":16,"w_S":19,"w_SW":2,"w_W":5,"w_NW":1,"nr_witn":78,"total_reward":1.44860594,"avg_reward":0.09657372933},{"address":"11rwKKWZhPgTHVGQFGk7WkG26Cr5aYeQLDcNaJg1K4s664VuhvU","name":"immense-quartz-duck","lat":51.53137699,"lng":-0.2325271593,"beac_rate":0.6559139785,"ref_rss":-98.96821466,"w_N":5,"w_NE":1,"w_E":0,"w_SE":2,"w_S":13,"w_SW":4,"w_W":5,"w_NW":3,"nr_witn":33,"total_reward":0.21387648,"avg_reward":0.014258432},{"address":"11vBdRfWzQYqEx21V7b3pFmFG7Xjo3k3XG8zxQNUWr1uJfVnfZD","name":"young-coal-cobra","lat":51.49519578,"lng":0.09749227876,"beac_rate":1,"ref_rss":-56.33618391,"w_N":3,"w_NE":2,"w_E":0,"w_SE":25,"w_S":40,"w_SW":14,"w_W":2,"w_NW":2,"nr_witn":88,"total_reward":6.87820693,"avg_reward":0.4585471287},{"address":"11jCqGRECTUFagwu35HN5iCnqd6Da5aCgZpH6cc5EaESyhS7KEF","name":"shaggy-maroon-manatee","lat":51.48981671,"lng":-0.220890115,"beac_rate":0.8936170213,"ref_rss":-106.5411325,"w_N":11,"w_NE":11,"w_E":3,"w_SE":6,"w_S":13,"w_SW":5,"w_W":4,"w_NW":6,"nr_witn":59,"total_reward":0.50385088,"avg_reward":0.03359005867},{"address":"112YoyMt9QrpdQcw1BtYxd4u58xPC7rgTFExjyyMSEyKmEQoseXq","name":"joyful-plastic-sardine","lat":51.48432454,"lng":-0.2122231754,"beac_rate":0.7857142857,"ref_rss":-109.8695726,"w_N":5,"w_NE":9,"w_E":5,"w_SE":8,"w_S":9,"w_SW":3,"w_W":1,"w_NW":5,"nr_witn":45,"total_reward":0.23712139,"avg_reward":0.01580809267},{"address":"11tUGLmoMeW2TNbx1NgEztqvoVKgEiHcunTsH4R2e6HCoqGXzD4","name":"zany-mercurial-dove","lat":51.51195924,"lng":-0.2735219219,"beac_rate":0.8347826087,"ref_rss":-104.0715595,"w_N":25,"w_NE":5,"w_E":6,"w_SE":2,"w_S":4,"w_SW":0,"w_W":3,"w_NW":9,"nr_witn":54,"total_reward":0.79335503,"avg_reward":0.05289033533},{"address":"11etpLi2wLA6Jjxg9pvZDggFWctA6BUm1zdmRT5fT7oCkvwhyFE","name":"dancing-golden-finch","lat":51.52757804,"lng":-0.1992761617,"beac_rate":0.8550724638,"ref_rss":-115.2315109,"w_N":2,"w_NE":2,"w_E":6,"w_SE":10,"w_S":5,"w_SW":2,"w_W":1,"w_NW":0,"nr_witn":28,"total_reward":0.40340265,"avg_reward":0.02689351},{"address":"114E3E92r3UTZzis39oKkTW3ocxAGVzwMT4TT8Aj6FQ8R5jsGkj","name":"damaged-rusty-octopus","lat":51.54177741,"lng":-0.2633455648,"beac_rate":0.7687861272,"ref_rss":-100.9910049,"w_N":12,"w_NE":7,"w_E":3,"w_SE":3,"w_S":5,"w_SW":7,"w_W":4,"w_NW":1,"nr_witn":42,"total_reward":0.44964392,"avg_reward":0.02997626133},{"address":"11MW1vUL8naYU1zQV6UwCGsaTyXrA9E4iTaoe7DaCJPBJLCMG23","name":"zany-orange-camel","lat":51.47001949,"lng":-0.1234241914,"beac_rate":0.9,"ref_rss":-98.49129188,"w_N":46,"w_NE":29,"w_E":7,"w_SE":14,"w_S":15,"w_SW":5,"w_W":14,"w_NW":21,"nr_witn":151,"total_reward":0.99754797,"avg_reward":0.066503198},{"address":"1195fCLUUnvjFnnkFQJK6zXX1AMq3fCLeeGd533S3q83SegCA6e","name":"cool-pistachio-buffalo","lat":51.42142976,"lng":-0.08936585919,"beac_rate":0.7032967033,"ref_rss":-105.1852499,"w_N":1,"w_NE":6,"w_E":5,"w_SE":0,"w_S":1,"w_SW":0,"w_W":0,"w_NW":0,"nr_witn":13,"total_reward":0.24938512,"avg_reward":0.01662567467},{"address":"11wsS23G2SXfx3c8AW37LTVoPZgsJ3HdKkhjjYtRVDmyQk8rB43","name":"crazy-taffy-starfish","lat":51.50238123,"lng":-0.07629384504,"beac_rate":0.9090909091,"ref_rss":-104.5653073,"w_N":13,"w_NE":8,"w_E":1,"w_SE":4,"w_S":0,"w_SW":3,"w_W":2,"w_NW":3,"nr_witn":34,"total_reward":0.2852491,"avg_reward":0.01901660667},{"address":"112jmcS1DAMKBGzw8tJkTn4E1kr9myJELkWDVJ6D4hmDb6UbRbbj","name":"gentle-jetblack-quail","lat":51.48261237,"lng":-0.1458869228,"beac_rate":0.9275362319,"ref_rss":-105.4908297,"w_N":8,"w_NE":5,"w_E":1,"w_SE":1,"w_S":1,"w_SW":1,"w_W":2,"w_NW":3,"nr_witn":22,"total_reward":0.18955432,"avg_reward":0.01263695467},{"address":"114QYNB13FeicS4D6ngezyxkPksvv6xz4dgEzW64r112TXc11Wo","name":"silly-glossy-dachshund","lat":51.39404361,"lng":-0.06359277068,"beac_rate":0.6918604651,"ref_rss":-119.1206426,"w_N":0,"w_NE":1,"w_E":13,"w_SE":16,"w_S":5,"w_SW":0,"w_W":0,"w_NW":0,"nr_witn":35,"total_reward":0.62854205,"avg_reward":0.04190280333},{"address":"112UHoTS76JroL1Fp6ywfkxgKUFhXPxcRPZi3VhFJGSU1cmv26yX","name":"raspy-pink-mantis","lat":51.49024816,"lng":-0.1620316779,"beac_rate":0.8878504673,"ref_rss":-95.71971319,"w_N":32,"w_NE":10,"w_E":1,"w_SE":5,"w_S":24,"w_SW":18,"w_W":5,"w_NW":21,"nr_witn":116,"total_reward":0.78053365,"avg_reward":0.05203557667},{"address":"112PDaPbzDFEDe5dEc1iTFFAc5HUZQNELNBnbLmkNCMRebBMvKa7","name":"small-raisin-scorpion","lat":51.45602856,"lng":-0.03606557949,"beac_rate":0.8229166667,"ref_rss":-106.6223432,"w_N":25,"w_NE":2,"w_E":12,"w_SE":4,"w_S":13,"w_SW":6,"w_W":4,"w_NW":10,"nr_witn":76,"total_reward":1.31416818,"avg_reward":0.087611212},{"address":"112SDZuBoLYKH9rWhgKFf2KWFrpFQuD4X7gyLh1KFDhikbfB75uY","name":"wide-lava-wren","lat":51.48137083,"lng":-0.1805992735,"beac_rate":0.935483871,"ref_rss":-102.2092407,"w_N":6,"w_NE":15,"w_E":16,"w_SE":41,"w_S":37,"w_SW":8,"w_W":2,"w_NW":3,"nr_witn":128,"total_reward":1.28466928,"avg_reward":0.08564461867},{"address":"112eT6REany57JVEtcxqN1bASnznFp1wUzcEL3Tkmn9bbhkpMFbv","name":"active-fiery-osprey","lat":51.54679475,"lng":-0.0102986678,"beac_rate":1,"ref_rss":-76.76556139,"w_N":18,"w_NE":12,"w_E":14,"w_SE":11,"w_S":27,"w_SW":22,"w_W":6,"w_NW":10,"nr_witn":120,"total_reward":3.5194791,"avg_reward":0.23463194},{"address":"11a4vYgie9RprXz1cmzPPoVReUK7hdiAmoRoxJGVQQPoeU7YMmm","name":"short-syrup-woodpecker","lat":51.51803548,"lng":-0.06392381249,"beac_rate":0.8421052632,"ref_rss":-110.9194992,"w_N":20,"w_NE":17,"w_E":9,"w_SE":14,"w_S":7,"w_SW":5,"w_W":7,"w_NW":14,"nr_witn":93,"total_reward":0.59955055,"avg_reward":0.03997003667},{"address":"11rLvP24uT17hwhyw1TowLFGin9P3dNjCLXWYhvwSFUx7sge8g9","name":"rich-lilac-eagle","lat":51.6133845,"lng":-0.2057450375,"beac_rate":0.6105263158,"ref_rss":-33.86144568,"w_N":5,"w_NE":0,"w_E":0,"w_SE":0,"w_S":1,"w_SW":2,"w_W":0,"w_NW":1,"nr_witn":9,"total_reward":0.19066574,"avg_reward":0.01271104933},{"address":"112RiQbKy7ZkqkQYtdN6hnp6zTRnqDsAGfWs8jsbHhqfA16wy6NS","name":"muscular-boysenberry-kitten","lat":51.51471782,"lng":-0.2644303908,"beac_rate":0.9279279279,"ref_rss":-113.5777282,"w_N":30,"w_NE":2,"w_E":3,"w_SE":6,"w_S":6,"w_SW":6,"w_W":4,"w_NW":17,"nr_witn":74,"total_reward":0.42314328,"avg_reward":0.028209552},{"address":"112qQK7enMfjNnbtfk5JpAF15R51rSNWH23DysSw6wkUpCaP3Etp","name":"plain-cider-leopard","lat":51.54118432,"lng":-0.1731447523,"beac_rate":0.6906077348,"ref_rss":-99.53283874,"w_N":10,"w_NE":5,"w_E":0,"w_SE":0,"w_S":8,"w_SW":1,"w_W":1,"w_NW":6,"nr_witn":31,"total_reward":0.24130935,"avg_reward":0.01608729},{"address":"112MpmNeo2fXHULGL7LtoyYv4Cn4vFA4DwWFUwrtv1Xjd7ryiXXb","name":"polite-maroon-lynx","lat":51.47759527,"lng":-0.119921319,"beac_rate":0.8965517241,"ref_rss":-110.6801696,"w_N":42,"w_NE":13,"w_E":3,"w_SE":13,"w_S":25,"w_SW":11,"w_W":14,"w_NW":12,"nr_witn":133,"total_reward":0.47085862,"avg_reward":0.03139057467},{"address":"112ZtAk7J1JCcdxCfkSygvWHd6LTkFzjuFvHHG2gYGJvcuDV2Bnq","name":"hidden-foggy-moose","lat":51.47391285,"lng":-0.09424985032,"beac_rate":0.9189189189,"ref_rss":-111.6231054,"w_N":3,"w_NE":3,"w_E":2,"w_SE":6,"w_S":5,"w_SW":5,"w_W":3,"w_NW":0,"nr_witn":27,"total_reward":0.31141597,"avg_reward":0.02076106467},{"address":"11shG89WZ8SeT41voayU5nQ43tvkRGVtTsQrjJBRvwqdhXRoxnY","name":"powerful-emerald-terrier","lat":51.46550495,"lng":-0.1599277403,"beac_rate":0.8448275862,"ref_rss":-113.91478,"w_N":8,"w_NE":21,"w_E":2,"w_SE":9,"w_S":4,"w_SW":1,"w_W":1,"w_NW":1,"nr_witn":47,"total_reward":0.53022138,"avg_reward":0.035348092},{"address":"11FqKvNPF9xkxM2wyT6SGRHAWFK4gvNnE21b2qu4u5cCMXbyTmF","name":"short-blue-lynx","lat":51.5132785,"lng":-0.1717692742,"beac_rate":0.3484848485,"ref_rss":-122.8667304,"w_N":4,"w_NE":2,"w_E":1,"w_SE":2,"w_S":4,"w_SW":1,"w_W":2,"w_NW":3,"nr_witn":19,"total_reward":0.20255875,"avg_reward":0.01350391667},{"address":"112rKArS89SWG3igQuS7vRLokLYHqXjGaQJzZtYLgZZg6YRfQes6","name":"breezy-tartan-alligator","lat":51.49991205,"lng":-0.3048126128,"beac_rate":1,"ref_rss":-92.44840445,"w_N":45,"w_NE":24,"w_E":2,"w_SE":2,"w_S":4,"w_SW":2,"w_W":0,"w_NW":14,"nr_witn":93,"total_reward":4.20862064,"avg_reward":0.2805747093},{"address":"112hsvHz1gCGQNhN4KBLXGKqNUC28YjecLRGYBqZmvX3LTaJyzRJ","name":"fresh-paisley-moth","lat":51.48768651,"lng":-0.1403348279,"beac_rate":0.9310344828,"ref_rss":-92.65483437,"w_N":16,"w_NE":13,"w_E":5,"w_SE":1,"w_S":7,"w_SW":8,"w_W":9,"w_NW":17,"nr_witn":76,"total_reward":1.12566801,"avg_reward":0.075044534},{"address":"112tKoc6sJLByScLAYeqBeVSCYNrcAkV9SLtwXXYKjiRQS8qpeju","name":"small-ceramic-terrier","lat":51.47844484,"lng":-0.02964419477,"beac_rate":1,"ref_rss":-98.1008757,"w_N":23,"w_NE":17,"w_E":11,"w_SE":15,"w_S":23,"w_SW":19,"w_W":17,"w_NW":34,"nr_witn":159,"total_reward":0.51821621,"avg_reward":0.03454774733},{"address":"112XSBrgZbdKGySrXByLZwqDVv8bcPUXE3AhyZ3xZmQfrwzqto3D","name":"boxy-pebble-squirrel","lat":51.58899008,"lng":-0.003210004491,"beac_rate":0.6323529412,"ref_rss":-98.80013471,"w_N":1,"w_NE":0,"w_E":1,"w_SE":1,"w_S":0,"w_SW":2,"w_W":3,"w_NW":2,"nr_witn":10,"total_reward":0.24375942,"avg_reward":0.016250628},{"address":"11sxBEbwTVAv1s1HugBwdzW1QTuc5By7WFdaVUE2ePFFt3jAjWD","name":"able-seafoam-chipmunk","lat":51.4583542,"lng":-0.1089171696,"beac_rate":0.7580645161,"ref_rss":-108.9771907,"w_N":3,"w_NE":3,"w_E":2,"w_SE":4,"w_S":5,"w_SW":1,"w_W":1,"w_NW":2,"nr_witn":21,"total_reward":0.56045641,"avg_reward":0.03736376067},{"address":"11289YQD6dfFrCarkCts1PhRc4PJ6YmDbSqzAorePoaXKnZ4dBZw","name":"deep-fleece-seagull","lat":51.60658092,"lng":-0.009690801144,"beac_rate":0.8367346939,"ref_rss":-111.3634003,"w_N":0,"w_NE":4,"w_E":3,"w_SE":6,"w_S":68,"w_SW":22,"w_W":12,"w_NW":5,"nr_witn":120,"total_reward":2.37626232,"avg_reward":0.158417488},{"address":"11N2zwk44K8hGpgqzZq1u8pXvWGgAvvxaTX8E5okHVoFhHyNZ5w","name":"sharp-cherry-mallard","lat":51.42352539,"lng":-0.08736256225,"beac_rate":0.8333333333,"ref_rss":-109.8458359,"w_N":13,"w_NE":4,"w_E":12,"w_SE":5,"w_S":13,"w_SW":2,"w_W":1,"w_NW":3,"nr_witn":53,"total_reward":0.65317018,"avg_reward":0.04354467867},{"address":"11FgdXfrwrVnXZFMFvbKTmdgsgToxqJYLcmunBhAE893cfBb2i6","name":"steep-ruby-mink","lat":51.57277711,"lng":-0.09057855646,"beac_rate":0.9772727273,"ref_rss":-104.1437363,"w_N":19,"w_NE":14,"w_E":23,"w_SE":28,"w_S":10,"w_SW":5,"w_W":4,"w_NW":31,"nr_witn":134,"total_reward":0.43723328,"avg_reward":0.02914888533},{"address":"11iAwCDR99xZfFmX8oxW8zhcg3sSAvkjmRq85jWv1pvo6f8zmPm","name":"faint-taffy-unicorn","lat":51.51170247,"lng":-0.1927853135,"beac_rate":0.8153846154,"ref_rss":-107.1829562,"w_N":8,"w_NE":9,"w_E":3,"w_SE":4,"w_S":17,"w_SW":5,"w_W":2,"w_NW":2,"nr_witn":50,"total_reward":0.34453822,"avg_reward":0.02296921467},{"address":"112Ft8ecqXf8wUR1NSETwEQCKxkqpF64S4vAhjoWLxccrWBsV8t4","name":"lively-teal-pike","lat":51.5236294,"lng":-0.1946173945,"beac_rate":0.8235294118,"ref_rss":-113.2672039,"w_N":2,"w_NE":6,"w_E":7,"w_SE":9,"w_S":9,"w_SW":4,"w_W":1,"w_NW":3,"nr_witn":41,"total_reward":0.27108887,"avg_reward":0.01807259133},{"address":"11sVYN99WJWFRNoaWMTGBjeuzCkvW7DPHaAsZSWJvC1B45MtNTh","name":"tangy-ginger-tarantula","lat":51.48045617,"lng":0.08326709957,"beac_rate":1,"ref_rss":-92.46679749,"w_N":3,"w_NE":16,"w_E":8,"w_SE":29,"w_S":10,"w_SW":1,"w_W":0,"w_NW":2,"nr_witn":69,"total_reward":3.7288172,"avg_reward":0.2485878133},{"address":"11wg7EzHjFuejQRxD56h8M5f1agYKFWt2UrjiUjhpNHtUbyn5RS","name":"quiet-arctic-pony","lat":51.51670838,"lng":-0.2314315677,"beac_rate":0.9444444444,"ref_rss":-103.1511956,"w_N":26,"w_NE":17,"w_E":0,"w_SE":7,"w_S":20,"w_SW":13,"w_W":15,"w_NW":9,"nr_witn":107,"total_reward":0.70954058,"avg_reward":0.04730270533},{"address":"11WvxL1ojZYYcuNQyoxebuwme8nK7nEKsHCXE6cerojDWHA6T6b","name":"swift-corduroy-albatross","lat":51.4644471,"lng":-0.1848180295,"beac_rate":0.4905660377,"ref_rss":-100.9600149,"w_N":0,"w_NE":0,"w_E":1,"w_SE":3,"w_S":2,"w_SW":0,"w_W":0,"w_NW":0,"nr_witn":6,"total_reward":0.29477221,"avg_reward":0.01965148067},{"address":"112KraH6JVqZG4rt6BbzXCq2MSjK2KLHsVZySQ2p1HDr55vvnbsu","name":"abundant-malachite-mammoth","lat":51.5462157,"lng":-0.05774071344,"beac_rate":1,"ref_rss":-101.5287213,"w_N":25,"w_NE":13,"w_E":5,"w_SE":12,"w_S":25,"w_SW":15,"w_W":13,"w_NW":31,"nr_witn":139,"total_reward":3.77182014,"avg_reward":0.251454676},{"address":"112oDmNAceGkiA9pJcRH3BNAAXPZNRDDJJRTqoqc3SF8JZfVhd33","name":"strong-sand-chicken","lat":51.443731,"lng":-0.111484569,"beac_rate":1,"ref_rss":-100.1757722,"w_N":17,"w_NE":69,"w_E":34,"w_SE":17,"w_S":7,"w_SW":1,"w_W":2,"w_NW":7,"nr_witn":154,"total_reward":5.60988183,"avg_reward":0.373992122},{"address":"11HuWLUHs93dRYGFN3d3R8JkEmzcENbvqKEeFr1jNjVZP2rXu74","name":"cuddly-hazel-peacock","lat":51.43266019,"lng":0.07355229428,"beac_rate":0.8541666667,"ref_rss":-90.65994936,"w_N":0,"w_NE":4,"w_E":9,"w_SE":27,"w_S":29,"w_SW":1,"w_W":0,"w_NW":0,"nr_witn":70,"total_reward":2.39409454,"avg_reward":0.1596063027},{"address":"11uSzjBcwdKpu1hEtiqS3ea6Q1tS3S1JSgRmtjZd8keaf325bb6","name":"small-misty-skunk","lat":51.46203943,"lng":-0.09359773161,"beac_rate":1,"ref_rss":-80.2817092,"w_N":7,"w_NE":10,"w_E":9,"w_SE":14,"w_S":27,"w_SW":5,"w_W":3,"w_NW":0,"nr_witn":75,"total_reward":4.60360356,"avg_reward":0.306906904},{"address":"112rNvqxPgqADndCJhjckuTam3nR33Wbj2ATh141RdCUUamoBSmh","name":"prehistoric-chocolate-eagle","lat":51.51305483,"lng":-0.09003165736,"beac_rate":0.9583333333,"ref_rss":-97.97986764,"w_N":48,"w_NE":63,"w_E":20,"w_SE":18,"w_S":10,"w_SW":1,"w_W":1,"w_NW":9,"nr_witn":153,"total_reward":0.72280965,"avg_reward":0.04818731},{"address":"117z1C3ynqj82xSJLozmMw7eo2znU8XHazHifU6HWZ7D2e1usNV","name":"hollow-currant-robin","lat":51.58913729,"lng":0.01338219655,"beac_rate":0.9487179487,"ref_rss":-93.69913155,"w_N":6,"w_NE":1,"w_E":0,"w_SE":0,"w_S":2,"w_SW":1,"w_W":4,"w_NW":23,"nr_witn":37,"total_reward":2.06017276,"avg_reward":0.1373448507},{"address":"112JhrfiYQpsWKrGLPSdNsbGWSkHm8cveo3CPa72rUZa4dtpfd6b","name":"dazzling-basil-poodle","lat":51.57289855,"lng":-0.01625415643,"beac_rate":0.9173553719,"ref_rss":-108.4077982,"w_N":12,"w_NE":11,"w_E":8,"w_SE":15,"w_S":41,"w_SW":29,"w_W":16,"w_NW":17,"nr_witn":149,"total_reward":0.46935168,"avg_reward":0.031290112},{"address":"11dPyPkLQx1pdUaAsTuHtGMRVMg2CRa4Z99Sw2ttqHLVNHEs9rz","name":"witty-daisy-canary","lat":51.54012742,"lng":0.05074704175,"beac_rate":0.8965517241,"ref_rss":-69.27258693,"w_N":3,"w_NE":3,"w_E":3,"w_SE":8,"w_S":7,"w_SW":6,"w_W":7,"w_NW":6,"nr_witn":43,"total_reward":0.40273108,"avg_reward":0.02684873867},{"address":"112rWK6J9xrYLwpX8Niqvb3DaegXRpMH9yZs7p1Lo4tVq6GXHwz1","name":"bumpy-wooden-toad","lat":51.54980616,"lng":0.01462518754,"beac_rate":1,"ref_rss":-83.9039877,"w_N":7,"w_NE":3,"w_E":9,"w_SE":25,"w_S":30,"w_SW":27,"w_W":17,"w_NW":12,"nr_witn":130,"total_reward":1.06755963,"avg_reward":0.071170642},{"address":"11cjrkwF9tGtEY1yukhG4y8CzbV5B2UiK9kRTE9KvP3GkPkxfvh","name":"clean-sable-wolf","lat":51.54297256,"lng":0.06246914624,"beac_rate":1,"ref_rss":-82.17553293,"w_N":0,"w_NE":0,"w_E":1,"w_SE":11,"w_S":55,"w_SW":51,"w_W":36,"w_NW":12,"nr_witn":166,"total_reward":2.18349699,"avg_reward":0.145566466},{"address":"11mCveg5iL6sQ3kVKKyUjuFCGmcZoaxpnCe1XdFSGxiTV41uHYo","name":"feisty-fossilized-python","lat":51.47958651,"lng":-0.03544449662,"beac_rate":1,"ref_rss":-97.65813825,"w_N":27,"w_NE":23,"w_E":27,"w_SE":63,"w_S":77,"w_SW":15,"w_W":1,"w_NW":7,"nr_witn":240,"total_reward":2.13100525,"avg_reward":0.1420670167},{"address":"11kYqUKf69izyFVdWvfbfmpWj9oGRHCwRQNxZC121jXtLfmxL1W","name":"stale-zinc-dalmatian","lat":51.52978882,"lng":0.046714344,"beac_rate":0.8526315789,"ref_rss":-90.41399304,"w_N":1,"w_NE":6,"w_E":4,"w_SE":4,"w_S":11,"w_SW":12,"w_W":8,"w_NW":15,"nr_witn":61,"total_reward":0.21926945,"avg_reward":0.01461796333},{"address":"118hzN9iQeQrZGPbAhTr3paUvEVGjsox4BZUdzms49UhRSTVMw8","name":"low-syrup-octopus","lat":51.52831706,"lng":-0.04117429794,"beac_rate":0.8630136986,"ref_rss":-82.46419161,"w_N":5,"w_NE":24,"w_E":10,"w_SE":13,"w_S":17,"w_SW":0,"w_W":1,"w_NW":1,"nr_witn":71,"total_reward":0.3005345,"avg_reward":0.02003563333},{"address":"112kJuncmSq3Lh2A1dKPgGC9K8LgMqhtnnqAdFgjqrw45m1x6tLT","name":"formal-rainbow-cod","lat":51.47955165,"lng":-0.1674232245,"beac_rate":0.9411764706,"ref_rss":-110.764987,"w_N":10,"w_NE":12,"w_E":2,"w_SE":1,"w_S":16,"w_SW":10,"w_W":6,"w_NW":7,"nr_witn":64,"total_reward":1.09465877,"avg_reward":0.07297725133},{"address":"11cKUQkhmXjb86CQPPNd4SxiAUd9LUCX8ymJ1ek8gHbVqgZY9Zk","name":"custom-cinnamon-frog","lat":51.51431387,"lng":-0.2190492305,"beac_rate":0.9642857143,"ref_rss":-98.9455038,"w_N":48,"w_NE":36,"w_E":12,"w_SE":13,"w_S":33,"w_SW":17,"w_W":17,"w_NW":31,"nr_witn":207,"total_reward":2.29741178,"avg_reward":0.1531607853},{"address":"1124tUEU42PC2f2BNCNPvwkDDLRdsKDgmdUMDgmKmbg9Y6JjiPnV","name":"savory-plastic-boar","lat":51.47820505,"lng":-0.1125959937,"beac_rate":1,"ref_rss":-99.81374865,"w_N":17,"w_NE":4,"w_E":4,"w_SE":7,"w_S":16,"w_SW":3,"w_W":6,"w_NW":8,"nr_witn":65,"total_reward":0.57246813,"avg_reward":0.038164542},{"address":"112osQb9FtajkbrLnahUiCPBQVu8RLYZr4KQ39NY5m2cwLyJCPWV","name":"dazzling-banana-trout","lat":51.59829907,"lng":-0.1140858779,"beac_rate":0.7272727273,"ref_rss":-99.06468935,"w_N":40,"w_NE":8,"w_E":6,"w_SE":3,"w_S":7,"w_SW":7,"w_W":11,"w_NW":20,"nr_witn":102,"total_reward":3.01632032,"avg_reward":0.2010880213},{"address":"117fzewSo2XCHSjewdDohetxZW8Si7KR9H73xJUbESkeRMTUu17","name":"warm-coral-dachshund","lat":51.46804118,"lng":-0.1194101735,"beac_rate":0.9090909091,"ref_rss":-105.190649,"w_N":24,"w_NE":20,"w_E":9,"w_SE":11,"w_S":9,"w_SW":7,"w_W":10,"w_NW":8,"nr_witn":98,"total_reward":1.78033059,"avg_reward":0.118688706},{"address":"1143k4riPyZPJBHgeUnYWkSTnS2tHDNdVhfnB83C1613WkrGxiy","name":"elegant-opal-goblin","lat":51.4078474,"lng":-0.0612416876,"beac_rate":0.9646017699,"ref_rss":-108.661501,"w_N":1,"w_NE":7,"w_E":11,"w_SE":11,"w_S":14,"w_SW":6,"w_W":2,"w_NW":0,"nr_witn":52,"total_reward":1.63861868,"avg_reward":0.1092412453},{"address":"1123xEQWq8GdB4AkmsTbgdnHWSHod5avB5xxLsMs7AzzbVphco1F","name":"high-arctic-whale","lat":51.44157257,"lng":0.0469137117,"beac_rate":1,"ref_rss":-78.11585721,"w_N":2,"w_NE":8,"w_E":15,"w_SE":47,"w_S":71,"w_SW":1,"w_W":2,"w_NW":6,"nr_witn":152,"total_reward":2.18319629,"avg_reward":0.1455464193},{"address":"11EiHMCptzXN88gTWzyKY7YrPcfVeYaabUsXsCdaFDzZmcJ87fK","name":"shallow-carmine-hedgehog","lat":51.63142412,"lng":-0.1662129573,"beac_rate":0.9215686275,"ref_rss":-102.8065437,"w_N":73,"w_NE":6,"w_E":5,"w_SE":1,"w_S":6,"w_SW":8,"w_W":6,"w_NW":54,"nr_witn":158,"total_reward":2.36826659,"avg_reward":0.1578844393},{"address":"112QgvH34P7pQpRmEjX4uKDuKt8BDSBryPYzjCJCysfqqRoAUpF","name":"cheesy-peach-pheasant","lat":51.61303086,"lng":-0.1323546238,"beac_rate":0.852173913,"ref_rss":-107.1652461,"w_N":43,"w_NE":1,"w_E":3,"w_SE":4,"w_S":3,"w_SW":5,"w_W":0,"w_NW":4,"nr_witn":63,"total_reward":1.08655467,"avg_reward":0.072436978},{"address":"11CTX8xX4RGZJLUui5fNang6KjTvUeKPSxPkQ8H5V7aNUqZVyU9","name":"hot-bronze-carp","lat":51.53273837,"lng":-0.2034752292,"beac_rate":1,"ref_rss":-73.65828889,"w_N":28,"w_NE":11,"w_E":11,"w_SE":2,"w_S":13,"w_SW":12,"w_W":17,"w_NW":23,"nr_witn":117,"total_reward":2.40276501,"avg_reward":0.160184334},{"address":"112avsi3ffC16uf3F4fmynC5yj4zdGn3ySf5cTZoqvp4VZjaohWp","name":"ambitious-daffodil-loris","lat":51.527995,"lng":-0.2042460624,"beac_rate":0.8620689655,"ref_rss":-112.7838039,"w_N":10,"w_NE":14,"w_E":11,"w_SE":7,"w_S":3,"w_SW":9,"w_W":1,"w_NW":3,"nr_witn":58,"total_reward":1.25217126,"avg_reward":0.083478084},{"address":"112gVci7UG9sFgaDQ9EnJnqSmvirykjFxdxYYKMdCmSaDTeXVwXg","name":"narrow-hazel-pike","lat":51.55613572,"lng":-0.1222584634,"beac_rate":1,"ref_rss":-100.2503199,"w_N":17,"w_NE":2,"w_E":11,"w_SE":5,"w_S":34,"w_SW":35,"w_W":11,"w_NW":16,"nr_witn":131,"total_reward":2.79079116,"avg_reward":0.186052744},{"address":"112sJTQuWURpzh9fRu7sBLBswewGeYosBrXiGZ59Me37kG8QNKwX","name":"stable-walnut-ostrich","lat":51.47338355,"lng":-0.04690576116,"beac_rate":0.8181818182,"ref_rss":-89.07289237,"w_N":21,"w_NE":29,"w_E":56,"w_SE":43,"w_S":41,"w_SW":6,"w_W":1,"w_NW":7,"nr_witn":204,"total_reward":2.09591325,"avg_reward":0.13972755},{"address":"11PyiN8NhxDH1gAim5paWfTG3LaUrRrDZCddiS9XjAdcxqzXPWv","name":"wobbly-orchid-chipmunk","lat":51.51758468,"lng":-0.1675974463,"beac_rate":1,"ref_rss":-80.369511,"w_N":0,"w_NE":0,"w_E":2,"w_SE":46,"w_S":1,"w_SW":0,"w_W":0,"w_NW":0,"nr_witn":49,"total_reward":4.13026566,"avg_reward":0.275351044},{"address":"11wgYZpx2SbQ1xbVSSxFGGuHNusHgFuTwhwFRVzWAz7b58ho1XW","name":"savory-citron-wombat","lat":51.48957601,"lng":-0.2110554179,"beac_rate":0.8571428571,"ref_rss":-94.83887269,"w_N":13,"w_NE":13,"w_E":8,"w_SE":4,"w_S":14,"w_SW":10,"w_W":7,"w_NW":11,"nr_witn":80,"total_reward":0.63606313,"avg_reward":0.04240420867},{"address":"112Fn7iHqiYkWRSet2dpgVsRhfoXzVo1bhVvmrB6dncRzrSMutqH","name":"dizzy-satin-lark","lat":51.51847283,"lng":-0.1694397611,"beac_rate":0.9166666667,"ref_rss":-115.9727778,"w_N":30,"w_NE":0,"w_E":0,"w_SE":0,"w_S":50,"w_SW":0,"w_W":0,"w_NW":0,"nr_witn":80,"total_reward":0.09906208,"avg_reward":0.006604138667},{"address":"11hBdGQBJSMuX8cMPwguFpYDA7xZBeoWznJeZ5ahqLwcrGM6qLx","name":"large-linen-frog","lat":51.51847283,"lng":-0.1694397611,"beac_rate":1,"ref_rss":-116.8014456,"w_N":28,"w_NE":0,"w_E":0,"w_SE":0,"w_S":50,"w_SW":0,"w_W":0,"w_NW":0,"nr_witn":78,"total_reward":0.10738606,"avg_reward":0.007159070667},{"address":"112Bmno6ma4B3BmPBjkJQum3QGqYmK4DQ7pqA8M6TMBWzeGXKPth","name":"crazy-citron-turkey","lat":51.51851535,"lng":-0.1696887517,"beac_rate":0.9090909091,"ref_rss":-117.0332827,"w_N":75,"w_NE":0,"w_E":0,"w_SE":0,"w_S":0,"w_SW":0,"w_W":0,"w_NW":0,"nr_witn":75,"total_reward":0.09569394,"avg_reward":0.006379596},{"address":"111F55aTwU2dYjCKSVpb5HDJ9posBvpij1Xj3A66Hew3mKdm6H6","name":"clever-rosewood-worm","lat":51.51851535,"lng":-0.1696887517,"beac_rate":0.875,"ref_rss":-116.287535,"w_N":82,"w_NE":0,"w_E":0,"w_SE":0,"w_S":0,"w_SW":0,"w_W":0,"w_NW":0,"nr_witn":82,"total_reward":0.1377157,"avg_reward":0.009181046667},{"address":"112u3RnB4Gx5NwVJ5wrGU83tACGacDm4sHiv4hjrRa6NLGbZ4nWB","name":"abundant-rainbow-oyster","lat":51.51851535,"lng":-0.1696887517,"beac_rate":0.9473684211,"ref_rss":-115.6371429,"w_N":81,"w_NE":0,"w_E":0,"w_SE":0,"w_S":0,"w_SW":0,"w_W":0,"w_NW":0,"nr_witn":81,"total_reward":0.05285976,"avg_reward":0.003523984},{"address":"112d7JRsvGGM3d5DkR1BgzZhiUqDJ94S89LVZJXCWDkHSwFCFai9","name":"short-dijon-robin","lat":51.51851535,"lng":-0.1696887517,"beac_rate":0.8571428571,"ref_rss":-117.2777778,"w_N":54,"w_NE":0,"w_E":0,"w_SE":0,"w_S":0,"w_SW":0,"w_W":0,"w_NW":0,"nr_witn":54,"total_reward":0.10744199,"avg_reward":0.007162799333},{"address":"112rYc6QjtjfaAbAWEPo5JegiQ5PL85BLfkcenQ18x5WzAV1VuiS","name":"perfect-marigold-goblin","lat":51.51847283,"lng":-0.1694397611,"beac_rate":0.95,"ref_rss":-114.411,"w_N":25,"w_NE":0,"w_E":0,"w_SE":0,"w_S":44,"w_SW":0,"w_W":0,"w_NW":0,"nr_witn":69,"total_reward":0.15450856,"avg_reward":0.01030057067},{"address":"11ZSENTnX2kA1VYcvFRm5nhHo57LNe98VMRNyShFWXbhuhNjuiv","name":"small-violet-shrimp","lat":51.51847283,"lng":-0.1694397611,"beac_rate":0.9642857143,"ref_rss":-115.0425397,"w_N":30,"w_NE":0,"w_E":0,"w_SE":0,"w_S":53,"w_SW":0,"w_W":0,"w_NW":0,"nr_witn":83,"total_reward":0.097988,"avg_reward":0.006532533333},{"address":"11XEHLjNR9RFjn75SJRqsbjBPUTsJazPUKTaxGUqjUgC1i2bKYs","name":"nutty-clear-pony","lat":51.51847283,"lng":-0.1694397611,"beac_rate":0.8571428571,"ref_rss":-116.3154321,"w_N":27,"w_NE":0,"w_E":0,"w_SE":0,"w_S":40,"w_SW":0,"w_W":0,"w_NW":0,"nr_witn":67,"total_reward":0.12491903,"avg_reward":0.008327935333},{"address":"11RKfVsFre1asjbHdxqV4egnZWqapPf5obPqPYpUkKgrxM1r9xq","name":"special-gauze-oyster","lat":51.48231712,"lng":0.08742248569,"beac_rate":1,"ref_rss":-67.89526454,"w_N":2,"w_NE":4,"w_E":2,"w_SE":24,"w_S":14,"w_SW":4,"w_W":0,"w_NW":1,"nr_witn":51,"total_reward":9.66048468,"avg_reward":0.644032312},{"address":"112LN9qpiejRQ6wUJR9sYCpLbs8SQSqkcnJYacTCdUkkCurirzbs","name":"prehistoric-aegean-dog","lat":51.51847283,"lng":-0.1694397611,"beac_rate":0.9473684211,"ref_rss":-117.6643678,"w_N":29,"w_NE":0,"w_E":0,"w_SE":0,"w_S":51,"w_SW":0,"w_W":0,"w_NW":0,"nr_witn":80,"total_reward":0.1105717,"avg_reward":0.007371446667},{"address":"11237B2UxSJVBWv4c3KZjicXkHS63wSQgzbrU6hkbcJvRQ72gSfz","name":"keen-sangria-hippo","lat":51.51851535,"lng":-0.1696887517,"beac_rate":0.8666666667,"ref_rss":-114.4526667,"w_N":80,"w_NE":0,"w_E":0,"w_SE":0,"w_S":0,"w_SW":0,"w_W":0,"w_NW":0,"nr_witn":80,"total_reward":0.10456132,"avg_reward":0.006970754667},{"address":"11cVrF2n4BRKytf892rpZNMs3UHn6cYvyFLmCmFTfSddzR4M5ib","name":"daring-taupe-trout","lat":51.51851535,"lng":-0.1696887517,"beac_rate":0.9333333333,"ref_rss":-115.3528455,"w_N":71,"w_NE":0,"w_E":0,"w_SE":0,"w_S":0,"w_SW":0,"w_W":0,"w_NW":0,"nr_witn":71,"total_reward":0.11079105,"avg_reward":0.00738607},{"address":"112KEezrEMzYQ6wbfQgP1E16nxdCEPCBaut4c6xfRbxgtdsCjyym","name":"bitter-misty-koala","lat":51.51851535,"lng":-0.1696887517,"beac_rate":0.8666666667,"ref_rss":-114.8767361,"w_N":76,"w_NE":0,"w_E":0,"w_SE":0,"w_S":0,"w_SW":0,"w_W":0,"w_NW":0,"nr_witn":76,"total_reward":0.05682042,"avg_reward":0.003788028},{"address":"112RsLNWTpFsddJq9gDxJDpeA5jRX1jDmwyQKZRB1nq9Hdmjc1Bg","name":"real-lava-owl","lat":51.51847283,"lng":-0.1694397611,"beac_rate":0.95,"ref_rss":-116.8041873,"w_N":29,"w_NE":0,"w_E":0,"w_SE":0,"w_S":52,"w_SW":0,"w_W":0,"w_NW":0,"nr_witn":81,"total_reward":0.07281236,"avg_reward":0.004854157333},{"address":"11M4LKbcED4yycRFrzNhCs1VNPp5cJVHbrxURUh5C27xfGLHU2x","name":"creamy-pineapple-raccoon","lat":51.51851535,"lng":-0.1696887517,"beac_rate":1,"ref_rss":-115.7804487,"w_N":80,"w_NE":0,"w_E":0,"w_SE":0,"w_S":0,"w_SW":0,"w_W":0,"w_NW":0,"nr_witn":80,"total_reward":0.07606994,"avg_reward":0.005071329333},{"address":"11dgWnu6dNuY5KMwjprYmL2FpnDTxEm1CHhH4S8RgBVtdrwZrDp","name":"fluffy-sable-spider","lat":51.51851535,"lng":-0.1696887517,"beac_rate":0.9285714286,"ref_rss":-115.3102837,"w_N":75,"w_NE":0,"w_E":0,"w_SE":0,"w_S":0,"w_SW":0,"w_W":0,"w_NW":0,"nr_witn":75,"total_reward":0.13353755,"avg_reward":0.008902503333},{"address":"112LngGN4LWCgo8kZS8R5de8z4RovGyGUHjQwGfCd6cuDW42UjT1","name":"oblong-teal-pheasant","lat":51.51851535,"lng":-0.1696887517,"beac_rate":1,"ref_rss":-114.3449275,"w_N":77,"w_NE":0,"w_E":0,"w_SE":0,"w_S":0,"w_SW":0,"w_W":0,"w_NW":0,"nr_witn":77,"total_reward":0.09725098,"avg_reward":0.006483398667},{"address":"112JaAAC8cEaZqaiUCJZMVL8hB9atpnGTjdPwHz6gPpxWe5EHpnj","name":"broad-slate-panther","lat":51.51851535,"lng":-0.1696887517,"beac_rate":0.9166666667,"ref_rss":-115.8405303,"w_N":69,"w_NE":0,"w_E":0,"w_SE":0,"w_S":0,"w_SW":0,"w_W":0,"w_NW":0,"nr_witn":69,"total_reward":0.07692279,"avg_reward":0.005128186},{"address":"11ni6DJj8i8BRXULEmYXrGifUuht7PnMf3xDW3VdgktYte7fW3C","name":"long-dijon-goose","lat":51.51851535,"lng":-0.1696887517,"beac_rate":0.9,"ref_rss":-116.4744898,"w_N":79,"w_NE":0,"w_E":0,"w_SE":0,"w_S":0,"w_SW":0,"w_W":0,"w_NW":0,"nr_witn":79,"total_reward":0.06267981,"avg_reward":0.004178654},{"address":"112RrTPozLyZrTzJTauNMkexKMD4Ld9GkRcLJZwekz4zxcoSQZgZ","name":"zealous-carmine-snail","lat":51.51851535,"lng":-0.1696887517,"beac_rate":0.8181818182,"ref_rss":-114.0606061,"w_N":54,"w_NE":0,"w_E":0,"w_SE":0,"w_S":0,"w_SW":0,"w_W":0,"w_NW":0,"nr_witn":54,"total_reward":0.07458691,"avg_reward":0.004972460667},{"address":"1125i9AVvQaoZ8dkvKQayDmWu4eT6C8wVPqj3cAXxK8dgY6pbvp3","name":"calm-coal-lemur","lat":51.51851535,"lng":-0.1696887517,"beac_rate":0.9,"ref_rss":-116.0102564,"w_N":82,"w_NE":0,"w_E":0,"w_SE":0,"w_S":0,"w_SW":0,"w_W":0,"w_NW":0,"nr_witn":82,"total_reward":0.07443512,"avg_reward":0.004962341333},{"address":"11htzxQJYTKgTgZLdDwRYYsS2KosTSCV4XYxT3JihMtnVfyRX9X","name":"fun-opal-marmot","lat":51.51847283,"lng":-0.1694397611,"beac_rate":0.9230769231,"ref_rss":-117.327381,"w_N":28,"w_NE":0,"w_E":0,"w_SE":0,"w_S":48,"w_SW":0,"w_W":0,"w_NW":0,"nr_witn":76,"total_reward":0.06822815,"avg_reward":0.004548543333},{"address":"11a5UavgmqAXag1wbSVcxCGH7GmguQnJT8NMJmyrP7MCirPR8NC","name":"dapper-sage-pig","lat":51.51851535,"lng":-0.1696887517,"beac_rate":0.9090909091,"ref_rss":-116.1280525,"w_N":83,"w_NE":0,"w_E":0,"w_SE":0,"w_S":0,"w_SW":0,"w_W":0,"w_NW":0,"nr_witn":83,"total_reward":0.08799136,"avg_reward":0.005866090667},{"address":"112dfJT978vb8pfz9QeBjY2LEXGof8AfwF9aLqz1LEXNGrs1sTXe","name":"jumpy-mustard-opossum","lat":51.51851535,"lng":-0.1696887517,"beac_rate":0.96,"ref_rss":-115.4451349,"w_N":81,"w_NE":0,"w_E":0,"w_SE":0,"w_S":0,"w_SW":0,"w_W":0,"w_NW":0,"nr_witn":81,"total_reward":0.12654451,"avg_reward":0.008436300667},{"address":"112Cr9dFTHgWadqX4dEnHrQubNRjmsuYBked7kGuH3ApnXPnWkUr","name":"kind-merlot-salamander","lat":51.51851535,"lng":-0.1696887517,"beac_rate":1,"ref_rss":-115.6270153,"w_N":82,"w_NE":0,"w_E":0,"w_SE":0,"w_S":0,"w_SW":0,"w_W":0,"w_NW":0,"nr_witn":82,"total_reward":0.10625001,"avg_reward":0.007083334},{"address":"114XVCAfKvyZ4MhGGRxMdKrsUPx93PYxjZFqQckzT27TPTh9yEk","name":"gigantic-pickle-horse","lat":51.51851535,"lng":-0.1696887517,"beac_rate":0.7857142857,"ref_rss":-116.997619,"w_N":58,"w_NE":0,"w_E":0,"w_SE":0,"w_S":0,"w_SW":0,"w_W":0,"w_NW":0,"nr_witn":58,"total_reward":0.15053542,"avg_reward":0.01003569467},{"address":"112FcbdxPdD2uo5vpSW2mdYmvNETyFdy8MtB9N9rpKU9mz5fi4yh","name":"overt-juniper-swallow","lat":51.51851535,"lng":-0.1696887517,"beac_rate":0.9166666667,"ref_rss":-113.8547009,"w_N":59,"w_NE":0,"w_E":0,"w_SE":0,"w_S":0,"w_SW":0,"w_W":0,"w_NW":0,"nr_witn":59,"total_reward":0.10718687,"avg_reward":0.007145791333},{"address":"11HfVQeRvtGCqBsBaJJs7zCKGfZm15NPmTor6zJMu9ggkgaiwoG","name":"genuine-amethyst-donkey","lat":51.51851535,"lng":-0.1696887517,"beac_rate":1,"ref_rss":-115.3987862,"w_N":82,"w_NE":0,"w_E":0,"w_SE":0,"w_S":0,"w_SW":0,"w_W":0,"w_NW":0,"nr_witn":82,"total_reward":0.07228707,"avg_reward":0.004819138},{"address":"11gPjJ9dZEUMYY8g57SHGrJqFXzXxHoooM2t4hxws5pJqtpzyeX","name":"zesty-blush-cow","lat":51.51851535,"lng":-0.1696887517,"beac_rate":0.88,"ref_rss":-114.1254902,"w_N":82,"w_NE":0,"w_E":0,"w_SE":0,"w_S":0,"w_SW":0,"w_W":0,"w_NW":0,"nr_witn":82,"total_reward":0.13742959,"avg_reward":0.009161972667},{"address":"112WwQT7LNfCVCcQ75urdbgRgWhmfV4w7rTRYGBurQ7Z5wegJEfT","name":"skinny-tartan-cricket","lat":51.51851535,"lng":-0.1696887517,"beac_rate":0.9090909091,"ref_rss":-114.8147526,"w_N":81,"w_NE":0,"w_E":0,"w_SE":0,"w_S":0,"w_SW":0,"w_W":0,"w_NW":0,"nr_witn":81,"total_reward":0.09820919,"avg_reward":0.006547279333},{"address":"11J5h7bHZqdUZyssx8tXEf1VDXJzmXEwDQKFuP2DeeXmjShMmS6","name":"strong-daisy-ferret","lat":51.51851535,"lng":-0.1696887517,"beac_rate":0.9166666667,"ref_rss":-114.7708333,"w_N":49,"w_NE":0,"w_E":0,"w_SE":0,"w_S":0,"w_SW":0,"w_W":0,"w_NW":0,"nr_witn":49,"total_reward":0.11372251,"avg_reward":0.007581500667},{"address":"11DRFYMGrKC2YpQ5t6gFm4PVZZQfv8JND15B4iBvUiJbrxitKH6","name":"narrow-paisley-parrot","lat":51.51851535,"lng":-0.1696887517,"beac_rate":0.8333333333,"ref_rss":-114.6880435,"w_N":74,"w_NE":0,"w_E":0,"w_SE":0,"w_S":0,"w_SW":0,"w_W":0,"w_NW":0,"nr_witn":74,"total_reward":0.09767299,"avg_reward":0.006511532667},{"address":"1124iE9LxXfEBS5LefaxM2vKmsVsZsg5NEGAfYF6t8E8XLC3ps9o","name":"colossal-bubblegum-bison","lat":51.51851535,"lng":-0.1696887517,"beac_rate":1,"ref_rss":-113.3556022,"w_N":82,"w_NE":0,"w_E":0,"w_SE":0,"w_S":0,"w_SW":0,"w_W":0,"w_NW":0,"nr_witn":82,"total_reward":0.11048899,"avg_reward":0.007365932667},{"address":"112eFoy6nJYN5qdwn84LbRE36MxZgLihVh4ThK3sgP3ZkuALurXJ","name":"scrawny-strawberry-gazelle","lat":51.51851535,"lng":-0.1696887517,"beac_rate":0.95,"ref_rss":-114.4484762,"w_N":79,"w_NE":0,"w_E":0,"w_SE":0,"w_S":0,"w_SW":0,"w_W":0,"w_NW":0,"nr_witn":79,"total_reward":0.11248547,"avg_reward":0.007499031333},{"address":"112SkPCgc75iPGu2hrQox68nXVt2GKkW6KtiTWc49TKpiDD1eJEQ","name":"mean-emerald-nuthatch","lat":51.51851535,"lng":-0.1696887517,"beac_rate":0.8571428571,"ref_rss":-114.9020147,"w_N":83,"w_NE":0,"w_E":0,"w_SE":0,"w_S":0,"w_SW":0,"w_W":0,"w_NW":0,"nr_witn":83,"total_reward":0.07512814,"avg_reward":0.005008542667},{"address":"114wLkCFKzjSqxGsoV63vGShccC1rZWJknxaxoVjoWNsEaVYSHh","name":"hollow-gauze-goose","lat":51.51851535,"lng":-0.1696887517,"beac_rate":1,"ref_rss":-115.3619048,"w_N":80,"w_NE":0,"w_E":0,"w_SE":0,"w_S":0,"w_SW":0,"w_W":0,"w_NW":0,"nr_witn":80,"total_reward":0.09031888,"avg_reward":0.006021258667},{"address":"1127PpxJ8imtjShqVBr2wa9HxVFp2nuHepGLypeAgv5fydXVJUFU","name":"rich-coal-vulture","lat":51.51851535,"lng":-0.1696887517,"beac_rate":1,"ref_rss":-116.1404255,"w_N":76,"w_NE":0,"w_E":0,"w_SE":0,"w_S":0,"w_SW":0,"w_W":0,"w_NW":0,"nr_witn":76,"total_reward":0.12016528,"avg_reward":0.008011018667},{"address":"112PRNK8Ng3AK4LPMFqdykcVMa8oKRLSBNJnW5YBnit4zQV2aXmr","name":"boxy-grape-mantaray","lat":51.51851535,"lng":-0.1696887517,"beac_rate":0.9333333333,"ref_rss":-114.7425532,"w_N":73,"w_NE":0,"w_E":0,"w_SE":0,"w_S":0,"w_SW":0,"w_W":0,"w_NW":0,"nr_witn":73,"total_reward":0.08216523,"avg_reward":0.005477682},{"address":"112JS9B29GPXVow9tZXbBf8fU8Z3mYUBZp3jo45jgR6N4VF3jyA2","name":"acidic-plum-rook","lat":51.51847283,"lng":-0.1694397611,"beac_rate":0.8,"ref_rss":-117.1770833,"w_N":24,"w_NE":0,"w_E":0,"w_SE":0,"w_S":45,"w_SW":0,"w_W":0,"w_NW":0,"nr_witn":69,"total_reward":0.10573735,"avg_reward":0.007049156667},{"address":"11PzWM2TaYCoQK5cETGtomz8LZw9A8vgLNE9RaMHjKJE18cMTqc","name":"dancing-powder-wombat","lat":51.51851535,"lng":-0.1696887517,"beac_rate":0.8888888889,"ref_rss":-114.8347518,"w_N":75,"w_NE":0,"w_E":0,"w_SE":0,"w_S":0,"w_SW":0,"w_W":0,"w_NW":0,"nr_witn":75,"total_reward":0.11871591,"avg_reward":0.007914394},{"address":"11QYCu7pvka3XvwKFf1TatAsDiBjMDUpQcdCGs4fkWQDBAUEwJr","name":"joyous-fleece-chinchilla","lat":51.51847283,"lng":-0.1694397611,"beac_rate":0.7692307692,"ref_rss":-117.7272727,"w_N":22,"w_NE":0,"w_E":0,"w_SE":0,"w_S":42,"w_SW":0,"w_W":0,"w_NW":0,"nr_witn":64,"total_reward":0.15805315,"avg_reward":0.01053687667},{"address":"11w6tzEmDNttN3UieFjHe3nrjVTLfjVYXr3dDKEk4z6HTjYqsRJ","name":"sunny-satin-goldfish","lat":51.51851535,"lng":-0.1696887517,"beac_rate":0.8823529412,"ref_rss":-114.0523333,"w_N":78,"w_NE":0,"w_E":0,"w_SE":0,"w_S":0,"w_SW":0,"w_W":0,"w_NW":0,"nr_witn":78,"total_reward":0.09890228,"avg_reward":0.006593485333},{"address":"11uZCKSaeAte1Febj4T6m14T7EYY12wUQe1u9mbFfo9e24eqtyX","name":"calm-sandstone-caterpillar","lat":51.51851535,"lng":-0.1696887517,"beac_rate":0.9583333333,"ref_rss":-112.8326236,"w_N":81,"w_NE":0,"w_E":0,"w_SE":0,"w_S":0,"w_SW":0,"w_W":0,"w_NW":0,"nr_witn":81,"total_reward":0.13258075,"avg_reward":0.008838716667},{"address":"11298yy5HzrDiN3ng64EG2WUy6BxXRPpm1pyVJANVP1ykiHFXwxz","name":"energetic-lead-mammoth","lat":51.51851535,"lng":-0.1696887517,"beac_rate":1,"ref_rss":-114.4673203,"w_N":81,"w_NE":0,"w_E":0,"w_SE":0,"w_S":0,"w_SW":0,"w_W":0,"w_NW":0,"nr_witn":81,"total_reward":0.14272575,"avg_reward":0.00951505},{"address":"1127LGTkWpQVjdeh6n5rnvabEr7ReQGn69Y3BgCeE3PPozQ5JQez","name":"fancy-gingham-stallion","lat":51.51851535,"lng":-0.1696887517,"beac_rate":1,"ref_rss":-114.5346939,"w_N":77,"w_NE":0,"w_E":0,"w_SE":0,"w_S":0,"w_SW":0,"w_W":0,"w_NW":0,"nr_witn":77,"total_reward":0.20837199,"avg_reward":0.013891466},{"address":"112Y6oEAhvLzRrhzNnq3pG6RCFEDNXwj8KpTJYXUb6ZcccS78y8x","name":"jovial-coal-copperhead","lat":51.55433655,"lng":-0.08834367042,"beac_rate":0.8666666667,"ref_rss":-104.2639147,"w_N":12,"w_NE":9,"w_E":2,"w_SE":7,"w_S":4,"w_SW":1,"w_W":2,"w_NW":5,"nr_witn":42,"total_reward":0.24138753,"avg_reward":0.016092502},{"address":"112CnMKZkjDzHwkhqVvJhcMmUPbJZeSd6Q1LJSAeckMBB4PhsiWt","name":"huge-fiery-dalmatian","lat":51.51851535,"lng":-0.1696887517,"beac_rate":0.8947368421,"ref_rss":-115.5953333,"w_N":81,"w_NE":0,"w_E":0,"w_SE":0,"w_S":0,"w_SW":0,"w_W":0,"w_NW":0,"nr_witn":81,"total_reward":0.086285,"avg_reward":0.005752333333},{"address":"112vXWCrvkqXMahdbmkr1sBWvz7uX2EasXk6yDQurmMM2jsspcSG","name":"short-cloth-armadillo","lat":51.51851535,"lng":-0.1696887517,"beac_rate":1,"ref_rss":-114.2373333,"w_N":79,"w_NE":0,"w_E":0,"w_SE":0,"w_S":0,"w_SW":0,"w_W":0,"w_NW":0,"nr_witn":79,"total_reward":0.11873721,"avg_reward":0.007915814},{"address":"1123RgvE27X9hQ8ZUxV5CcPjzkxs8Nxe5mdCggnUdwigYo5eWGYw","name":"proud-iron-gibbon","lat":51.51851535,"lng":-0.1696887517,"beac_rate":1,"ref_rss":-113.3674242,"w_N":64,"w_NE":0,"w_E":0,"w_SE":0,"w_S":0,"w_SW":0,"w_W":0,"w_NW":0,"nr_witn":64,"total_reward":0.09952894,"avg_reward":0.006635262667},{"address":"118uMx1wBojhbTPYJd3hJ3aVT9GFgSw1vW6BhKp52Hq3bwNZwc5","name":"formal-pecan-rat","lat":51.51851535,"lng":-0.1696887517,"beac_rate":1,"ref_rss":-114.5998599,"w_N":82,"w_NE":0,"w_E":0,"w_SE":0,"w_S":0,"w_SW":0,"w_W":0,"w_NW":0,"nr_witn":82,"total_reward":0.08638373,"avg_reward":0.005758915333},{"address":"112c13nosQifqHkMjd9xs8LoWAqiqPu6TcYdsGyitw8PaVNvTaWi","name":"howling-umber-grasshopper","lat":51.5457641,"lng":-0.07597384103,"beac_rate":0.8987341772,"ref_rss":-104.2407465,"w_N":10,"w_NE":9,"w_E":3,"w_SE":9,"w_S":18,"w_SW":7,"w_W":13,"w_NW":14,"nr_witn":83,"total_reward":0.17941893,"avg_reward":0.011961262},{"address":"11MWJr6ZNLCenpFhgtoFHp8Yd9rKhsUVDtQc11LpJYyP2KUxjbK","name":"festive-sepia-nightingale","lat":51.51851535,"lng":-0.1696887517,"beac_rate":0.96,"ref_rss":-116.5556242,"w_N":78,"w_NE":0,"w_E":0,"w_SE":0,"w_S":0,"w_SW":0,"w_W":0,"w_NW":0,"nr_witn":78,"total_reward":0.13534776,"avg_reward":0.009023184},{"address":"11hDZLK2XiHDaFEWxk1W9oA65K9Wqh4BkMnv62FKLh5QqNjhj39","name":"small-caramel-eagle","lat":51.51847283,"lng":-0.1694397611,"beac_rate":1,"ref_rss":-115.7371795,"w_N":26,"w_NE":0,"w_E":0,"w_SE":0,"w_S":51,"w_SW":0,"w_W":0,"w_NW":0,"nr_witn":77,"total_reward":0.10403087,"avg_reward":0.006935391333},{"address":"112WsFNf8Tp7ZuhANSLEvZ9cUkJ27Wkon5N5mKJVaW3uU3rqxdBS","name":"early-marmalade-walrus","lat":51.51851535,"lng":-0.1696887517,"beac_rate":0.8666666667,"ref_rss":-114.7974074,"w_N":69,"w_NE":0,"w_E":0,"w_SE":0,"w_S":0,"w_SW":0,"w_W":0,"w_NW":0,"nr_witn":69,"total_reward":0.08974096,"avg_reward":0.005982730667},{"address":"11n98DpDP3g1S7MN5ZUsghvYS8ucnhxhWunsTrs7A9KqRWKZLFj","name":"wild-heather-lynx","lat":51.51847283,"lng":-0.1694397611,"beac_rate":0.8823529412,"ref_rss":-116.1151068,"w_N":29,"w_NE":0,"w_E":0,"w_SE":0,"w_S":51,"w_SW":0,"w_W":0,"w_NW":0,"nr_witn":80,"total_reward":0.09987436,"avg_reward":0.006658290667},{"address":"11Qx3ed5avNwuJEbXvhUx136MhMQYZfDsbGKzVcjuVJ7VcZ7zTC","name":"sneaky-orchid-wolf","lat":51.51851535,"lng":-0.1696887517,"beac_rate":0.8666666667,"ref_rss":-117.0602814,"w_N":62,"w_NE":0,"w_E":0,"w_SE":0,"w_S":0,"w_SW":0,"w_W":0,"w_NW":0,"nr_witn":62,"total_reward":0.15664048,"avg_reward":0.01044269867},{"address":"11or9Gjvz3hyoMxXi6BdbVTJoGiDi2qZRdRGF2cSnQq7yUh4VLe","name":"zealous-honey-bat","lat":51.51851535,"lng":-0.1696887517,"beac_rate":0.8823529412,"ref_rss":-117.0283688,"w_N":73,"w_NE":0,"w_E":0,"w_SE":0,"w_S":0,"w_SW":0,"w_W":0,"w_NW":0,"nr_witn":73,"total_reward":0.13541777,"avg_reward":0.009027851333},{"address":"112WQWP8gSPEwfc6eiMkRsAE47fPZyKVq5DqotfipjXqHptZPjWg","name":"keen-viridian-deer","lat":51.51851535,"lng":-0.1696887517,"beac_rate":0.8947368421,"ref_rss":-115.678926,"w_N":77,"w_NE":0,"w_E":0,"w_SE":0,"w_S":0,"w_SW":0,"w_W":0,"w_NW":0,"nr_witn":77,"total_reward":0.13206766,"avg_reward":0.008804510667},{"address":"112GXbR53eMXG11dzRcQdmY4p4Xs4MpkHZsa38GfbxmgZT3uvj42","name":"ripe-ultraviolet-raccoon","lat":51.51851535,"lng":-0.1696887517,"beac_rate":0.9545454545,"ref_rss":-114.8146259,"w_N":79,"w_NE":0,"w_E":0,"w_SE":0,"w_S":0,"w_SW":0,"w_W":0,"w_NW":0,"nr_witn":79,"total_reward":0.08683327,"avg_reward":0.005788884667},{"address":"11uqeqDXftYGkhcWkcZ8MkkFYTG8hmQvGc5pjwV4YSTRKotKV1P","name":"melted-indigo-beaver","lat":51.51847283,"lng":-0.1694397611,"beac_rate":1,"ref_rss":-113.4783951,"w_N":27,"w_NE":0,"w_E":0,"w_SE":0,"w_S":51,"w_SW":0,"w_W":0,"w_NW":0,"nr_witn":78,"total_reward":0.08457081,"avg_reward":0.005638054},{"address":"1122zGShoVV3XL2i9m8p72BnYBmE2jrUmBspBgoCCTgWLaLfPqn5","name":"beautiful-orange-turkey","lat":51.51847283,"lng":-0.1694397611,"beac_rate":0.8333333333,"ref_rss":-113.5,"w_N":27,"w_NE":0,"w_E":0,"w_SE":0,"w_S":49,"w_SW":0,"w_W":0,"w_NW":0,"nr_witn":76,"total_reward":0.08714236,"avg_reward":0.005809490667},{"address":"11dPioS2aesSMeMD2dguTEhCrZvtDVK3GCbjTAmZgSAZuSUVMs3","name":"eager-citron-fox","lat":51.51847283,"lng":-0.1694397611,"beac_rate":0.8,"ref_rss":-112.1858785,"w_N":29,"w_NE":0,"w_E":0,"w_SE":0,"w_S":50,"w_SW":0,"w_W":0,"w_NW":0,"nr_witn":79,"total_reward":0.10576418,"avg_reward":0.007050945333},{"address":"11JewdhrbCFw8myhRCLsbMaHyVyB9Q1NGxSnjosutWcTgX1GZ1w","name":"elegant-chocolate-pigeon","lat":51.51847283,"lng":-0.1694397611,"beac_rate":0.92,"ref_rss":-113.3178571,"w_N":28,"w_NE":0,"w_E":0,"w_SE":0,"w_S":51,"w_SW":0,"w_W":0,"w_NW":0,"nr_witn":79,"total_reward":0.1044842,"avg_reward":0.006965613333},{"address":"112ivCqixMPC3BBaBdZnFTu6yE2b5bECBuwDiKABj3spQntDsXyD","name":"boxy-berry-moose","lat":51.52227846,"lng":-0.08112009165,"beac_rate":1,"ref_rss":-99.26213878,"w_N":26,"w_NE":18,"w_E":19,"w_SE":24,"w_S":16,"w_SW":4,"w_W":4,"w_NW":3,"nr_witn":114,"total_reward":1.34834231,"avg_reward":0.08988948733},{"address":"112CmZih4aWP26kL4BCo7LWcxG4MjjfE98HK8iT4m2WBf6m67ipR","name":"high-jetblack-platypus","lat":51.60231432,"lng":-0.0673307653,"beac_rate":0.9545454545,"ref_rss":-101.267816,"w_N":26,"w_NE":4,"w_E":2,"w_SE":6,"w_S":25,"w_SW":9,"w_W":3,"w_NW":12,"nr_witn":87,"total_reward":0.65621853,"avg_reward":0.043747902},{"address":"112WsZpbAm44af6HtVzwRuNDMoPPYqq83cuq1jD89j3VxZ9JFbRm","name":"polished-hazelnut-lobster","lat":51.51847283,"lng":-0.1694397611,"beac_rate":1,"ref_rss":-116.3611111,"w_N":27,"w_NE":0,"w_E":0,"w_SE":0,"w_S":47,"w_SW":0,"w_W":0,"w_NW":0,"nr_witn":74,"total_reward":0.13297754,"avg_reward":0.008865169333},{"address":"112DxPofwXgFrz5ajZB7k3j3d5kZTikJVbKpyUa2Aza4wgb4myec","name":"jovial-mustard-shell","lat":51.51847283,"lng":-0.1694397611,"beac_rate":0.8095238095,"ref_rss":-116.8840278,"w_N":24,"w_NE":0,"w_E":0,"w_SE":0,"w_S":45,"w_SW":0,"w_W":0,"w_NW":0,"nr_witn":69,"total_reward":0.10129545,"avg_reward":0.00675303},{"address":"11N1FUw1XN29iu9go4VWvRgwTV7ZVPgyeHxCRP372NMcNtFG5KX","name":"precise-vermilion-peacock","lat":51.51851535,"lng":-0.1696887517,"beac_rate":0.9285714286,"ref_rss":-117.6095238,"w_N":54,"w_NE":0,"w_E":0,"w_SE":0,"w_S":0,"w_SW":0,"w_W":0,"w_NW":0,"nr_witn":54,"total_reward":0.13594977,"avg_reward":0.009063318},{"address":"11WRCvKWNKr8sqLDBWPJGsyo5MvVCj4UJeYP4TKsu6M71GYJ6Yq","name":"cool-lava-squirrel","lat":51.51847283,"lng":-0.1694397611,"beac_rate":1,"ref_rss":-117.3713435,"w_N":28,"w_NE":0,"w_E":0,"w_SE":0,"w_S":49,"w_SW":0,"w_W":0,"w_NW":0,"nr_witn":77,"total_reward":0.11590972,"avg_reward":0.007727314667},{"address":"116ZFr95npR4mZ7FVtpqwsoduFM9WwKowJLnRAQYcdHF7ibfuth","name":"cool-inky-raven","lat":51.51847283,"lng":-0.1694397611,"beac_rate":0.95,"ref_rss":-116.8540564,"w_N":27,"w_NE":0,"w_E":0,"w_SE":0,"w_S":45,"w_SW":0,"w_W":0,"w_NW":0,"nr_witn":72,"total_reward":0.06802663,"avg_reward":0.004535108667},{"address":"11Mq9tK9EdNUA3shDtEAPCxhrFEfsdepDe9g4EDrU1n6eVmgyPt","name":"sneaky-lavender-squirrel","lat":51.51847283,"lng":-0.1694397611,"beac_rate":0.8888888889,"ref_rss":-113.4487179,"w_N":26,"w_NE":0,"w_E":0,"w_SE":0,"w_S":46,"w_SW":0,"w_W":0,"w_NW":0,"nr_witn":72,"total_reward":0.10443101,"avg_reward":0.006962067333},{"address":"11zQZSWwpXzu9fWaYaQBLRycZowtkX9p9rYoZqcW4GaqpbdN4cg","name":"clever-frost-raccoon","lat":51.51847283,"lng":-0.1694397611,"beac_rate":1,"ref_rss":-117.0217949,"w_N":26,"w_NE":0,"w_E":0,"w_SE":0,"w_S":48,"w_SW":0,"w_W":0,"w_NW":0,"nr_witn":74,"total_reward":0.09576363,"avg_reward":0.006384242},{"address":"1124m1j5Gzxq7YQQbQgfcFhMohRxjpX3PnpdbHET6XbaEGsL8wYP","name":"future-viridian-moose","lat":51.47138671,"lng":-0.1347639316,"beac_rate":0.9090909091,"ref_rss":-113.1902748,"w_N":39,"w_NE":17,"w_E":8,"w_SE":13,"w_S":16,"w_SW":5,"w_W":6,"w_NW":8,"nr_witn":112,"total_reward":1.25319986,"avg_reward":0.08354665733},{"address":"11gPaBPaxNAFx7ambA5Yx5cb8zJeRExZRp5Fckiyvr7YZ43vBmP","name":"genuine-tiger-oyster","lat":51.51851535,"lng":-0.1696887517,"beac_rate":0.875,"ref_rss":-118.2443978,"w_N":80,"w_NE":0,"w_E":0,"w_SE":0,"w_S":0,"w_SW":0,"w_W":0,"w_NW":0,"nr_witn":80,"total_reward":0.11490971,"avg_reward":0.007660647333},{"address":"112Cy7tzJhyRHcdgnbMtPC66UMJqfU16JXfPokio2sKEWBkKpoxj","name":"young-nylon-robin","lat":51.51847283,"lng":-0.1694397611,"beac_rate":1,"ref_rss":-119.25,"w_N":16,"w_NE":0,"w_E":0,"w_SE":0,"w_S":17,"w_SW":0,"w_W":0,"w_NW":0,"nr_witn":33,"total_reward":0.07554505,"avg_reward":0.005036336667},{"address":"112AhdxuTdY3jNikRi9ji7uZuQovVZfCoMCKSqspqwtcDLnJfa9H","name":"cool-steel-pike","lat":51.51847283,"lng":-0.1694397611,"beac_rate":0.9166666667,"ref_rss":-114.2676984,"w_N":30,"w_NE":0,"w_E":0,"w_SE":0,"w_S":51,"w_SW":0,"w_W":0,"w_NW":0,"nr_witn":81,"total_reward":0.12592302,"avg_reward":0.008394868},{"address":"112TSwCrWYcPJSWUapkJbmn4PqMWdFDzjTAtJjYnNTwJwqMwAja7","name":"clumsy-amethyst-chameleon","lat":51.51847283,"lng":-0.1694397611,"beac_rate":0.8095238095,"ref_rss":-114.3345679,"w_N":27,"w_NE":0,"w_E":0,"w_SE":0,"w_S":50,"w_SW":0,"w_W":0,"w_NW":0,"nr_witn":77,"total_reward":0.1195395,"avg_reward":0.0079693},{"address":"11s4aPkDxWVkHv2HUoyzTb9eCNLmhNhpES7UefWRJ3seTDcKSex","name":"strong-latte-pheasant","lat":51.51847283,"lng":-0.1694397611,"beac_rate":1,"ref_rss":-116.057307,"w_N":29,"w_NE":0,"w_E":0,"w_SE":0,"w_S":49,"w_SW":0,"w_W":0,"w_NW":0,"nr_witn":78,"total_reward":0.10953607,"avg_reward":0.007302404667},{"address":"112dvU8U5q7acovjtvnMBynBT6rQZ5RUqiy8BoK95yPuXUhT3tbn","name":"wobbly-pickle-cheetah","lat":51.45312694,"lng":-0.008388602889,"beac_rate":0.9130434783,"ref_rss":-109.7869375,"w_N":15,"w_NE":2,"w_E":12,"w_SE":14,"w_S":33,"w_SW":8,"w_W":3,"w_NW":1,"nr_witn":88,"total_reward":1.25997613,"avg_reward":0.08399840867},{"address":"11fYxd7jZ8LkjNqRZM3HDsJ2LvF6Ju3aNS7Uzh6y39A3J9RsfgN","name":"damaged-honey-armadillo","lat":51.41506765,"lng":-0.1939551392,"beac_rate":0.7368421053,"ref_rss":-107.5695833,"w_N":30,"w_NE":3,"w_E":1,"w_SE":2,"w_S":5,"w_SW":5,"w_W":10,"w_NW":4,"nr_witn":60,"total_reward":0.27316002,"avg_reward":0.018210668},{"address":"11RjjPv31o5swKBX7X9rFAGHMzBxm79FUu65vG8TNShnjicy1xQ","name":"fast-denim-camel","lat":51.63916363,"lng":-0.1352360392,"beac_rate":0.9019607843,"ref_rss":-149.0978121,"w_N":0,"w_NE":0,"w_E":0,"w_SE":0,"w_S":6,"w_SW":102,"w_W":4,"w_NW":2,"nr_witn":114,"total_reward":0.59479676,"avg_reward":0.03965311733},{"address":"112UheZqz8XDFmaJJUoDCpKUc6hdc7Z14kkhJ24yYHyTcFAcEr4Y","name":"immense-chili-moth","lat":51.51826726,"lng":-0.1657173056,"beac_rate":0.9191919192,"ref_rss":-113.9894881,"w_N":23,"w_NE":23,"w_E":16,"w_SE":14,"w_S":27,"w_SW":9,"w_W":7,"w_NW":5,"nr_witn":124,"total_reward":0.61206516,"avg_reward":0.040804344},{"address":"112wgw4VNssiLkcTb98XkSh7uF5Adanq2W6AkrMYfKSy3EYmE2cU","name":"fluffy-denim-mongoose","lat":51.55448104,"lng":0.05641443104,"beac_rate":0.8910891089,"ref_rss":-108.0381184,"w_N":2,"w_NE":1,"w_E":0,"w_SE":2,"w_S":12,"w_SW":7,"w_W":16,"w_NW":12,"nr_witn":52,"total_reward":0.86439372,"avg_reward":0.057626248},{"address":"112A4DPjKiqni2XcToZTnrQufMAizgWAaRDKWRmH4oheCMcabyvz","name":"tricky-taffy-badger","lat":51.4726875,"lng":-0.1776266848,"beac_rate":0.9305555556,"ref_rss":-107.3470435,"w_N":24,"w_NE":17,"w_E":14,"w_SE":11,"w_S":22,"w_SW":5,"w_W":2,"w_NW":9,"nr_witn":104,"total_reward":0.82784774,"avg_reward":0.05518984933},{"address":"11UzSfS7bp8Caz6uzNfZx11oZubYEw3M4ZSsd5ziE7q41r1fFi2","name":"helpful-rosewood-caribou","lat":51.4626796,"lng":-0.2005303788,"beac_rate":0.6470588235,"ref_rss":467.0286331,"w_N":0,"w_NE":1,"w_E":1,"w_SE":0,"w_S":0,"w_SW":0,"w_W":0,"w_NW":0,"nr_witn":2,"total_reward":0.13393021,"avg_reward":0.008928680667},{"address":"11zqiaXstGnDmhwbdusgSPD6CFu8TNcZPSuyUs45Uy8YKNZYVPe","name":"fit-pecan-cat","lat":51.50953283,"lng":-0.238986197,"beac_rate":0.76,"ref_rss":-109.8910339,"w_N":17,"w_NE":3,"w_E":2,"w_SE":3,"w_S":7,"w_SW":3,"w_W":4,"w_NW":6,"nr_witn":45,"total_reward":0.37909702,"avg_reward":0.02527313467},{"address":"112Rxien2ekcF8jXrbMZ1BxWj6PveMJr48vrjR7VVDy7BY91dEcV","name":"young-flint-dinosaur","lat":51.51222346,"lng":-0.1362330137,"beac_rate":0.9142857143,"ref_rss":-96.16221047,"w_N":16,"w_NE":9,"w_E":1,"w_SE":12,"w_S":4,"w_SW":3,"w_W":3,"w_NW":16,"nr_witn":64,"total_reward":0.16741613,"avg_reward":0.01116107533},{"address":"11dykfYCnPXGbpBTJApNK3qSGGWnKgZMDpVv8KpfURjuWeFFHvg","name":"joyful-fleece-penguin","lat":51.46334224,"lng":-0.1028687954,"beac_rate":0.8666666667,"ref_rss":-121.3213034,"w_N":12,"w_NE":15,"w_E":12,"w_SE":5,"w_S":15,"w_SW":4,"w_W":4,"w_NW":7,"nr_witn":66,"total_reward":0.56380359,"avg_reward":0.037586906},{"address":"11kmRDthVDQSxHWXsenaGgwA5JsJkP5VK2GWnJGYWJV8k9FwZ6v","name":"witty-honey-shrimp","lat":51.53971288,"lng":-0.2520377741,"beac_rate":0.9375,"ref_rss":-106.399377,"w_N":10,"w_NE":20,"w_E":4,"w_SE":2,"w_S":0,"w_SW":1,"w_W":0,"w_NW":5,"nr_witn":42,"total_reward":0.39902676,"avg_reward":0.026601784},{"address":"11wyfSbfk1KQiXrhyXJ7Nf95mG72YcZjxYAGXc9TD9kYYboAvRv","name":"old-vinyl-mouse","lat":51.61554242,"lng":-0.1847893129,"beac_rate":0.7086614173,"ref_rss":-107.7847936,"w_N":3,"w_NE":1,"w_E":2,"w_SE":0,"w_S":7,"w_SW":10,"w_W":4,"w_NW":3,"nr_witn":30,"total_reward":1.38552245,"avg_reward":0.09236816333},{"address":"112ArYUntEu59DnbTameHvhC6MymFgXWaiw2UyRrozWG4m1EpRtn","name":"bubbly-grape-shetland","lat":51.55817405,"lng":-0.2114092774,"beac_rate":0.92,"ref_rss":-115.9403483,"w_N":3,"w_NE":6,"w_E":5,"w_SE":9,"w_S":10,"w_SW":6,"w_W":4,"w_NW":7,"nr_witn":50,"total_reward":0.27548193,"avg_reward":0.018365462},{"address":"11mAxZ5MPZKw5PLGaCjWJmf4u6wHBKRwYCD7gLVXeYk2NkRgX1N","name":"spare-ash-cheetah","lat":51.52967994,"lng":-0.1855387512,"beac_rate":0.8,"ref_rss":-85.53644246,"w_N":12,"w_NE":4,"w_E":3,"w_SE":6,"w_S":17,"w_SW":12,"w_W":3,"w_NW":4,"nr_witn":61,"total_reward":0.25727472,"avg_reward":0.017151648},{"address":"112LnFqE2yRBmdvEZe5Lgay6XbH4vTTA7ZzF97z8FFK8fwgcQWL7","name":"mini-mossy-pigeon","lat":51.52847065,"lng":-0.1650163347,"beac_rate":0.8461538462,"ref_rss":-127.230259,"w_N":4,"w_NE":5,"w_E":10,"w_SE":2,"w_S":3,"w_SW":3,"w_W":1,"w_NW":1,"nr_witn":29,"total_reward":0.56337226,"avg_reward":0.03755815067},{"address":"112REA388T4k4mHXaoim4UyEAPUdJtpoJmZyD6LrRzW27w8yGuMv","name":"special-macaroon-ram","lat":51.4691635,"lng":-0.136021944,"beac_rate":0.9285714286,"ref_rss":-110.6950607,"w_N":40,"w_NE":7,"w_E":2,"w_SE":7,"w_S":9,"w_SW":7,"w_W":14,"w_NW":15,"nr_witn":101,"total_reward":0.72589901,"avg_reward":0.04839326733},{"address":"11D44cqUj5ZcdHG7SxjcYowtfWVEQZ1Uizrr7zAqX3fxD4yRVyB","name":"recumbent-heather-moose","lat":51.51726778,"lng":-0.05111440338,"beac_rate":0.9259259259,"ref_rss":-102.2511113,"w_N":19,"w_NE":6,"w_E":5,"w_SE":8,"w_S":17,"w_SW":19,"w_W":11,"w_NW":17,"nr_witn":100,"total_reward":0.27190953,"avg_reward":0.018127302},{"address":"11tHFpoyPcaVzcnUxm93PnG321oXMkiLd7QFnqatrNL5Yke9pnX","name":"swift-basil-griffin","lat":51.42672853,"lng":-0.008371284727,"beac_rate":0.8495145631,"ref_rss":-125.788122,"w_N":0,"w_NE":2,"w_E":8,"w_SE":16,"w_S":25,"w_SW":0,"w_W":0,"w_NW":0,"nr_witn":51,"total_reward":0.87437695,"avg_reward":0.05829179667},{"address":"112AjoRVRSUybX8rYw758sdeHZWCPTHs8G27CdgsvWS96kXyjsLa","name":"cuddly-marigold-ram","lat":51.47299138,"lng":-0.1223514957,"beac_rate":0.9298245614,"ref_rss":-99.43759314,"w_N":8,"w_NE":5,"w_E":2,"w_SE":4,"w_S":3,"w_SW":1,"w_W":2,"w_NW":9,"nr_witn":34,"total_reward":0.08165947,"avg_reward":0.005443964667},{"address":"1121VEcBCNc9d8hX2PrxZz84ge84hrzybo3aCYGDNwD4SoTaAJQg","name":"puny-coral-lizard","lat":51.56440747,"lng":-0.05351722621,"beac_rate":0.9230769231,"ref_rss":-87.35372191,"w_N":34,"w_NE":22,"w_E":3,"w_SE":12,"w_S":5,"w_SW":2,"w_W":8,"w_NW":16,"nr_witn":102,"total_reward":1.53756429,"avg_reward":0.102504286},{"address":"11T2VwZvDrbzxZoYQqvpNAqMtB8XVLJmS7Lr7m1rw8zuQyRWkSV","name":"warm-aegean-flamingo","lat":51.48403822,"lng":-0.1022790285,"beac_rate":0.935483871,"ref_rss":-95.05376977,"w_N":41,"w_NE":13,"w_E":8,"w_SE":6,"w_S":9,"w_SW":19,"w_W":14,"w_NW":15,"nr_witn":125,"total_reward":1.07233646,"avg_reward":0.07148909733},{"address":"112Z2pFCRNCj7qiduXG5em76kzRw44MPbMRWvn9YKpLUVLDTnpue","name":"attractive-merlot-goose","lat":51.46249395,"lng":-0.01530288835,"beac_rate":0.9734513274,"ref_rss":-112.6391501,"w_N":15,"w_NE":8,"w_E":18,"w_SE":27,"w_S":22,"w_SW":12,"w_W":9,"w_NW":8,"nr_witn":119,"total_reward":0.92463694,"avg_reward":0.06164246267},{"address":"1113giD2RBbphnZR2cWuWUZTSj3dE6rn3GNra45rGP1E3HjvuCH","name":"tart-sage-boar","lat":51.48622968,"lng":0.06731370002,"beac_rate":0.9333333333,"ref_rss":-89.75786808,"w_N":30,"w_NE":7,"w_E":12,"w_SE":24,"w_S":18,"w_SW":7,"w_W":6,"w_NW":1,"nr_witn":105,"total_reward":0.32716767,"avg_reward":0.021811178},{"address":"112gBfm2C5U3PKz7TkBWMFUiY9vF7iiN85QsuGXMLmJnxwxdxKtu","name":"young-slate-caterpillar","lat":51.52380798,"lng":-0.0249682554,"beac_rate":0.88,"ref_rss":-104.8604802,"w_N":4,"w_NE":15,"w_E":3,"w_SE":0,"w_S":0,"w_SW":0,"w_W":0,"w_NW":5,"nr_witn":27,"total_reward":1.02419141,"avg_reward":0.06827942733},{"address":"11AA7QQGXyvAkQ4DqyQNnvJrQWD1ZjtuywypeqbyJQbMARtnaBH","name":"melodic-bone-beaver","lat":51.49506366,"lng":-0.203700395,"beac_rate":0.8045977011,"ref_rss":-104.4661659,"w_N":4,"w_NE":5,"w_E":3,"w_SE":6,"w_S":6,"w_SW":10,"w_W":2,"w_NW":3,"nr_witn":39,"total_reward":0.45055642,"avg_reward":0.03003709467},{"address":"112jTQfDmccmLSiki5Gn2m5QoGP72WTp7Ned82hs56jBFZdiPV5T","name":"ancient-indigo-chimpanzee","lat":51.55176574,"lng":-0.07002498516,"beac_rate":1,"ref_rss":-108.2054853,"w_N":0,"w_NE":4,"w_E":0,"w_SE":0,"w_S":0,"w_SW":2,"w_W":1,"w_NW":0,"nr_witn":7,"total_reward":14.01776901,"avg_reward":0.934517934},{"address":"11rC6m1AZhiK78oG4TvKxazNCZJptimyozNwNho1LTawbWs4eyx","name":"low-frost-ostrich","lat":51.43772097,"lng":-0.1509777092,"beac_rate":0.9166666667,"ref_rss":-118.4656045,"w_N":10,"w_NE":23,"w_E":11,"w_SE":18,"w_S":19,"w_SW":6,"w_W":1,"w_NW":2,"nr_witn":90,"total_reward":5.12790586,"avg_reward":0.3418603907},{"address":"1125CmXkiWFon8cUMRCnhMRNYPCP3D7bHm6qa3hQgNEa4yDUZfm5","name":"scrawny-hemp-oyster","lat":51.47873999,"lng":-0.144210407,"beac_rate":1,"ref_rss":-96.74343667,"w_N":10,"w_NE":5,"w_E":2,"w_SE":20,"w_S":24,"w_SW":7,"w_W":5,"w_NW":2,"nr_witn":75,"total_reward":3.93370243,"avg_reward":0.2622468287},{"address":"11DFX3ARqzhyDWP5Tjs57AhLjhFjk9r1E1W9bDQgY9kKUADrHwE","name":"sneaky-pearl-cat","lat":51.46264437,"lng":-0.1666949597,"beac_rate":0.9701492537,"ref_rss":-102.3986651,"w_N":41,"w_NE":32,"w_E":12,"w_SE":48,"w_S":40,"w_SW":13,"w_W":7,"w_NW":27,"nr_witn":220,"total_reward":1.35077267,"avg_reward":0.09005151133},{"address":"11DxFFCH2zkz611UxBXJv71b6ntvwZsJm3F1w9owkGAsrvFvKVt","name":"pet-burlap-griffin","lat":51.59187599,"lng":0.03486021937,"beac_rate":0.8108108108,"ref_rss":-124.0335874,"w_N":0,"w_NE":0,"w_E":0,"w_SE":3,"w_S":6,"w_SW":4,"w_W":1,"w_NW":0,"nr_witn":14,"total_reward":1.10741747,"avg_reward":0.07382783133},{"address":"112YEGQB9E9mWFnQVeLrfiMmVYCeQmQ2oFc5H71Aju7Bg7TSUs4t","name":"hot-syrup-platypus","lat":51.53135828,"lng":-0.01221162922,"beac_rate":0.9166666667,"ref_rss":-88.43279439,"w_N":13,"w_NE":6,"w_E":3,"w_SE":12,"w_S":18,"w_SW":29,"w_W":13,"w_NW":18,"nr_witn":112,"total_reward":3.00600043,"avg_reward":0.2004000287},{"address":"11f13xEBoo4bnaBwZHUigUnDLXeXaFWNJ4UjK4goawdovvuotLL","name":"great-navy-okapi","lat":51.5549137,"lng":-0.1511420124,"beac_rate":0.8376068376,"ref_rss":-103.8286205,"w_N":13,"w_NE":1,"w_E":0,"w_SE":2,"w_S":5,"w_SW":10,"w_W":5,"w_NW":10,"nr_witn":46,"total_reward":0.79784076,"avg_reward":0.053189384},{"address":"11VRM1hJYUaqCyFp8bSXYHZSWdxQMtJNARJcHC57yzjA4idrv8H","name":"skinny-lavender-rook","lat":51.46527976,"lng":-0.01232572527,"beac_rate":1,"ref_rss":-102.5712885,"w_N":10,"w_NE":7,"w_E":18,"w_SE":30,"w_S":8,"w_SW":0,"w_W":4,"w_NW":3,"nr_witn":80,"total_reward":2.22185088,"avg_reward":0.148123392},{"address":"11CKrwQrU9c7wVKzSy5hLZ3iQbDoqWwZP2DduwLsrsPMo5Y7UYE","name":"short-opal-eel","lat":51.4887146,"lng":0.06123957201,"beac_rate":0.9090909091,"ref_rss":-96.28495773,"w_N":17,"w_NE":9,"w_E":10,"w_SE":20,"w_S":14,"w_SW":1,"w_W":4,"w_NW":4,"nr_witn":79,"total_reward":4.60975306,"avg_reward":0.3073168707},{"address":"112tX6mpngiZ5H6AGN5HS5oUrGkZ2to7Wt82kcUg38NNT89AH6xE","name":"bent-azure-grasshopper","lat":51.47152276,"lng":0.05037582845,"beac_rate":1,"ref_rss":-56.83712247,"w_N":1,"w_NE":3,"w_E":5,"w_SE":36,"w_S":56,"w_SW":10,"w_W":4,"w_NW":2,"nr_witn":117,"total_reward":7.69262794,"avg_reward":0.5128418627},{"address":"112A5PPYhNWvP6Wjfrm4SZXQqWpbHjpE2Cq4ukJQvkVoD2Ee1uq2","name":"cold-merlot-yak","lat":51.44468673,"lng":-0.05686315065,"beac_rate":0.9782608696,"ref_rss":-112.7357904,"w_N":34,"w_NE":2,"w_E":14,"w_SE":22,"w_S":32,"w_SW":3,"w_W":0,"w_NW":1,"nr_witn":108,"total_reward":1.14324125,"avg_reward":0.07621608333},{"address":"11EYi95MhTvaqGL4QzLhL8w7jBT3Qk8GtqaoepcXfit8rL9YYgE","name":"hidden-coffee-canary","lat":51.4572924,"lng":-0.1630778162,"beac_rate":0.8561643836,"ref_rss":-109.7313847,"w_N":7,"w_NE":9,"w_E":4,"w_SE":21,"w_S":16,"w_SW":1,"w_W":2,"w_NW":3,"nr_witn":63,"total_reward":0.48152066,"avg_reward":0.03210137733},{"address":"11V9AZ7B3KiDQXZh2obxvbWWyHSK6YoGEPgZWyHVm3QbF23Upfk","name":"boxy-indigo-cottonmouth","lat":51.53316774,"lng":-0.08777017188,"beac_rate":0.9210526316,"ref_rss":-106.0424826,"w_N":12,"w_NE":7,"w_E":0,"w_SE":6,"w_S":4,"w_SW":5,"w_W":2,"w_NW":7,"nr_witn":43,"total_reward":0.2551924,"avg_reward":0.01701282667},{"address":"11TVo43sAMo9Drh3MnHs2syvqziBmLruDNuw6PxVBq1m4Bjgjjm","name":"fast-pink-mantaray","lat":51.48819291,"lng":0.07253794403,"beac_rate":1,"ref_rss":-91.43163891,"w_N":16,"w_NE":3,"w_E":6,"w_SE":18,"w_S":22,"w_SW":5,"w_W":4,"w_NW":8,"nr_witn":82,"total_reward":4.06958369,"avg_reward":0.2713055793},{"address":"112VCwRcjfvCaqgVTnXe9GVTpLA2mt6AJLJMBjreM8ZjYroiXSMu","name":"fierce-khaki-cod","lat":51.50872385,"lng":0.01929044049,"beac_rate":0.9090909091,"ref_rss":-92.12702045,"w_N":10,"w_NE":13,"w_E":19,"w_SE":18,"w_S":18,"w_SW":7,"w_W":2,"w_NW":11,"nr_witn":98,"total_reward":4.23363947,"avg_reward":0.2822426313},{"address":"11VDqqK26LodVJXTpVrx8wMqHVBCXVjWogMCbD9KE9QAisXDbWP","name":"wobbly-currant-worm","lat":51.51198326,"lng":-0.1809821993,"beac_rate":0.9206349206,"ref_rss":-106.8539605,"w_N":8,"w_NE":9,"w_E":2,"w_SE":9,"w_S":22,"w_SW":6,"w_W":2,"w_NW":4,"nr_witn":62,"total_reward":0.49615572,"avg_reward":0.033077048},{"address":"11eVCjNX6JbVuzAkJJkN9kov6duyGjbT1HX32avHh7oAsY9Vfjt","name":"witty-inky-meerkat","lat":51.35451011,"lng":-0.1503710006,"beac_rate":0.6610169492,"ref_rss":-123.5735396,"w_N":0,"w_NE":18,"w_E":10,"w_SE":17,"w_S":0,"w_SW":0,"w_W":0,"w_NW":0,"nr_witn":45,"total_reward":0.17738021,"avg_reward":0.01182534733},{"address":"112PACYTea7wGUjjRW4nCE1UyE6bzTKmLSiBD2XScUkKvMf1DbUb","name":"restless-candy-seahorse","lat":51.53281162,"lng":-0.05647698224,"beac_rate":0.875,"ref_rss":-110.9394308,"w_N":9,"w_NE":9,"w_E":5,"w_SE":1,"w_S":6,"w_SW":9,"w_W":4,"w_NW":7,"nr_witn":50,"total_reward":0.28444987,"avg_reward":0.01896332467},{"address":"112Jaq9axNK6yZYgKQxmbrJ5aYUUVBWdv1TFD6p6NTNEBmjmVbeQ","name":"zany-sky-skunk","lat":51.48767343,"lng":-0.007461041729,"beac_rate":1,"ref_rss":-62.10920998,"w_N":21,"w_NE":11,"w_E":5,"w_SE":14,"w_S":20,"w_SW":5,"w_W":1,"w_NW":7,"nr_witn":84,"total_reward":4.65767927,"avg_reward":0.3105119513},{"address":"112qW8iZxMJVkbMMkfEkLKS1ajmJjmam1qPzVLCGh4tSM3y93cDu","name":"itchy-alabaster-mammoth","lat":51.47433354,"lng":-0.1528333777,"beac_rate":0.8636363636,"ref_rss":-93.84487092,"w_N":11,"w_NE":10,"w_E":0,"w_SE":0,"w_S":8,"w_SW":2,"w_W":1,"w_NW":6,"nr_witn":38,"total_reward":0.1808502,"avg_reward":0.01205668},{"address":"112WTqKXGN12DkDUs6pcPc62tvjFA5rPRoQ3jsCzJqRb6ZQckB4d","name":"precise-mandarin-shetland","lat":51.52177268,"lng":-0.0447977461,"beac_rate":1,"ref_rss":-89.11389528,"w_N":11,"w_NE":10,"w_E":7,"w_SE":15,"w_S":31,"w_SW":19,"w_W":8,"w_NW":22,"nr_witn":123,"total_reward":2.88699682,"avg_reward":0.1924664547},{"address":"11WVidQh5tfNihEgARifgZDaNFhmuokW6Gza9o3VGGKpy14ShcZ","name":"stale-pecan-copperhead","lat":51.51563583,"lng":-0.2023991052,"beac_rate":0.975,"ref_rss":-96.29374115,"w_N":65,"w_NE":26,"w_E":28,"w_SE":15,"w_S":27,"w_SW":19,"w_W":6,"w_NW":23,"nr_witn":209,"total_reward":1.07927543,"avg_reward":0.07195169533},{"address":"11MsYfs2qz2jtKUzXdcymmMHWQfEu7Xv75GQ52W8rp6dtKGqN3o","name":"acidic-seaweed-starling","lat":51.54387809,"lng":-0.1101085643,"beac_rate":0.7211538462,"ref_rss":-118.8182852,"w_N":16,"w_NE":3,"w_E":3,"w_SE":3,"w_S":19,"w_SW":5,"w_W":3,"w_NW":7,"nr_witn":59,"total_reward":0.59838023,"avg_reward":0.03989201533},{"address":"11JSRvFJiTW4MJfjMp7YbZg4zHNazpov7AuLS8gydyvNT25MFym","name":"straight-hickory-mantaray","lat":51.48369715,"lng":0.1282303281,"beac_rate":1,"ref_rss":-99.23585078,"w_N":0,"w_NE":0,"w_E":1,"w_SE":43,"w_S":66,"w_SW":2,"w_W":0,"w_NW":0,"nr_witn":112,"total_reward":5.47590443,"avg_reward":0.3650602953},{"address":"11Ci33aLq9KdzkvXtEXPjmmdPRKoFoumKD8MdbAmk2TsLzHxY3q","name":"curved-tweed-millipede","lat":51.47908832,"lng":-0.1051959775,"beac_rate":1,"ref_rss":-106.0364115,"w_N":42,"w_NE":5,"w_E":2,"w_SE":2,"w_S":8,"w_SW":12,"w_W":7,"w_NW":8,"nr_witn":86,"total_reward":1.48313995,"avg_reward":0.09887599667},{"address":"11SfUs63kuuy3N5JvfxVZ6MJQXrbABdxxY6AGSPXqpJzZXE4hKQ","name":"ancient-ruby-ferret","lat":51.55191263,"lng":-0.09761007663,"beac_rate":0.8421052632,"ref_rss":-100.9740377,"w_N":17,"w_NE":7,"w_E":2,"w_SE":4,"w_S":2,"w_SW":4,"w_W":0,"w_NW":6,"nr_witn":42,"total_reward":0.45157814,"avg_reward":0.03010520933},{"address":"112LWYxerhWcKguQ97eW28x7teit3hNWX1DpVcz3zjTYhdjZW1Ze","name":"hollow-turquoise-ostrich","lat":51.4624649,"lng":-0.1077927872,"beac_rate":0.9344262295,"ref_rss":-101.8046654,"w_N":10,"w_NE":7,"w_E":2,"w_SE":2,"w_S":5,"w_SW":11,"w_W":6,"w_NW":3,"nr_witn":46,"total_reward":1.22794976,"avg_reward":0.08186331733},{"address":"112W6FP6xG95WtAKSfQxhR12h5MiUtec1Q6s7zbMHPzxcPkfhaUt","name":"suave-hemp-crocodile","lat":51.45462507,"lng":-0.1945202196,"beac_rate":1,"ref_rss":-97.87249087,"w_N":5,"w_NE":4,"w_E":7,"w_SE":5,"w_S":7,"w_SW":7,"w_W":12,"w_NW":7,"nr_witn":54,"total_reward":2.62914906,"avg_reward":0.175276604},{"address":"112L4x8jvnnarvM4Hd7QWy5pFt9wzMTZkszzjd6VeF8j5YH4J4Sy","name":"tricky-mulberry-cricket","lat":51.61529488,"lng":-0.1372148381,"beac_rate":0.9268292683,"ref_rss":-91.43872508,"w_N":62,"w_NE":2,"w_E":5,"w_SE":5,"w_S":4,"w_SW":9,"w_W":9,"w_NW":40,"nr_witn":136,"total_reward":3.56304629,"avg_reward":0.2375364193},{"address":"11fy5Ckrdx1dCTDstXFvsbQBFjD9zUFAqbdydLEv6unfmXKFxBG","name":"calm-sky-ferret","lat":51.54309099,"lng":-0.02291096253,"beac_rate":0.9054054054,"ref_rss":-102.7389132,"w_N":22,"w_NE":17,"w_E":11,"w_SE":30,"w_S":59,"w_SW":24,"w_W":13,"w_NW":17,"nr_witn":192,"total_reward":0.97130679,"avg_reward":0.064753786},{"address":"112wi1Kac1CNYvgSxY1CdXsWsRyKAZNtK38nqqBvk6U2jV38vkCM","name":"petite-yellow-mouse","lat":51.53210465,"lng":-0.06487659226,"beac_rate":0.92,"ref_rss":-100.86499,"w_N":23,"w_NE":19,"w_E":8,"w_SE":9,"w_S":9,"w_SW":6,"w_W":6,"w_NW":41,"nr_witn":121,"total_reward":1.37451839,"avg_reward":0.09163455933},{"address":"112AJkUYrmh1wwWEUSX5wG4YK9cRxuFj7gdi2cA4shTNa9XYqjTu","name":"quaint-mulberry-goose","lat":51.44681539,"lng":-0.1521407741,"beac_rate":0.8723404255,"ref_rss":-98.21423898,"w_N":12,"w_NE":3,"w_E":1,"w_SE":0,"w_S":1,"w_SW":3,"w_W":1,"w_NW":3,"nr_witn":24,"total_reward":1.12021026,"avg_reward":0.074680684},{"address":"112MPekqCiXXXcz17zs2BrEAKSmBw3xCw5CLMGVjbBzxtUacBoDw","name":"round-oily-dolphin","lat":51.4484805,"lng":-0.1350331579,"beac_rate":0.880952381,"ref_rss":-100.6389558,"w_N":6,"w_NE":14,"w_E":5,"w_SE":16,"w_S":19,"w_SW":8,"w_W":7,"w_NW":6,"nr_witn":81,"total_reward":2.51598462,"avg_reward":0.167732308},{"address":"117TGcd7vSWhtdfg7aVUqXYkLCthBwpusar5cc9x89okdGTKKFL","name":"digital-eggshell-kitten","lat":51.49602639,"lng":0.07366630126,"beac_rate":0.8081395349,"ref_rss":-104.9168179,"w_N":7,"w_NE":0,"w_E":4,"w_SE":7,"w_S":5,"w_SW":1,"w_W":5,"w_NW":8,"nr_witn":37,"total_reward":0.45017681,"avg_reward":0.03001178733},{"address":"11WFFqPpVJDjpLMetMsHA3T2wTkdK4fmSHJCerp2d8pPE9DQz2v","name":"shambolic-orange-robin","lat":51.49760772,"lng":-0.2439191392,"beac_rate":0.710982659,"ref_rss":-118.7870831,"w_N":7,"w_NE":4,"w_E":1,"w_SE":10,"w_S":8,"w_SW":2,"w_W":3,"w_NW":3,"nr_witn":38,"total_reward":0.62881306,"avg_reward":0.04192087067},{"address":"112kauCYgthvxPkp4oXL8KgGurDgsunLoWpptcX4WXph3fd9roZh","name":"hidden-spruce-ape","lat":51.48210215,"lng":-0.1043709763,"beac_rate":1,"ref_rss":-86.14341015,"w_N":15,"w_NE":6,"w_E":2,"w_SE":1,"w_S":12,"w_SW":14,"w_W":11,"w_NW":6,"nr_witn":67,"total_reward":5.22887972,"avg_reward":0.3485919813},{"address":"11ggJxKUDLJz353HJewaCQ7MSSGCLWaZbPS8CaK6XNZ7VvGnQC2","name":"trendy-olive-shark","lat":51.51910995,"lng":-0.1580605834,"beac_rate":0.7553191489,"ref_rss":-115.230271,"w_N":1,"w_NE":2,"w_E":4,"w_SE":10,"w_S":12,"w_SW":2,"w_W":0,"w_NW":0,"nr_witn":31,"total_reward":0.39308612,"avg_reward":0.02620574133},{"address":"112V7DguP7q4DMfjZm7SNMotLwhgQdYwTMvLyn2vFG22QKDP6y8i","name":"prehistoric-nylon-hedgehog","lat":51.47282841,"lng":-0.1130256769,"beac_rate":0.9107142857,"ref_rss":-105.1514435,"w_N":37,"w_NE":33,"w_E":14,"w_SE":13,"w_S":16,"w_SW":12,"w_W":6,"w_NW":10,"nr_witn":141,"total_reward":0.97565605,"avg_reward":0.06504373667},{"address":"112jbpt5gm9VE5yLR56fdUgQd4pDPf24NkQNBfekK9TDKMTU76RP","name":"quick-nylon-locust","lat":51.45587848,"lng":-0.1237753676,"beac_rate":0.8529411765,"ref_rss":-107.1293276,"w_N":15,"w_NE":12,"w_E":10,"w_SE":10,"w_S":6,"w_SW":8,"w_W":1,"w_NW":8,"nr_witn":70,"total_reward":1.59942259,"avg_reward":0.1066281727},{"address":"11Fq7bJCZZvhbosjKvsGuUQQYrqc1jaArMurpeixV3sfp7t1gaT","name":"fast-coffee-chimpanzee","lat":51.39492959,"lng":-0.08881474531,"beac_rate":0.8888888889,"ref_rss":-103.2468558,"w_N":3,"w_NE":4,"w_E":12,"w_SE":21,"w_S":3,"w_SW":0,"w_W":2,"w_NW":0,"nr_witn":45,"total_reward":0.19216297,"avg_reward":0.01281086467},{"address":"11EvQGorTSrR4f1HNhas8cnM4L7pUxST5NtY8WDLE3hM1MKEjgA","name":"swift-mauve-pike","lat":51.5512366,"lng":-0.05193002479,"beac_rate":0.9795918367,"ref_rss":-94.51484247,"w_N":28,"w_NE":29,"w_E":8,"w_SE":22,"w_S":19,"w_SW":19,"w_W":4,"w_NW":29,"nr_witn":158,"total_reward":1.63452214,"avg_reward":0.1089681427},{"address":"11w53KnkMHxdQvzFbQexKvdbeVgxL9Daw44jZehxo9JkkfqaMcS","name":"salty-leather-scallop","lat":51.53756599,"lng":-0.2217165095,"beac_rate":1,"ref_rss":-104.5851556,"w_N":36,"w_NE":5,"w_E":4,"w_SE":2,"w_S":9,"w_SW":9,"w_W":14,"w_NW":28,"nr_witn":107,"total_reward":2.2210036,"avg_reward":0.1480669067},{"address":"11wQNMWJTZaqasM7k2rDjL8qeYkRTHzW3iKaegQ66xRCicgFEyP","name":"energetic-chili-raccoon","lat":51.522705,"lng":-0.03021931946,"beac_rate":0.95,"ref_rss":-97.00963058,"w_N":14,"w_NE":20,"w_E":16,"w_SE":14,"w_S":20,"w_SW":15,"w_W":21,"w_NW":19,"nr_witn":139,"total_reward":1.47229333,"avg_reward":0.09815288867},{"address":"112TmtFqAVAgX2tQ68Kja76xMUiQ7MzWm8ogPQe4mCcMnJanHJfe","name":"overt-cloth-bear","lat":51.47691272,"lng":0.02000831432,"beac_rate":1,"ref_rss":-80.36047945,"w_N":6,"w_NE":8,"w_E":9,"w_SE":31,"w_S":20,"w_SW":5,"w_W":1,"w_NW":6,"nr_witn":86,"total_reward":6.67881996,"avg_reward":0.445254664},{"address":"11261i4B1HxFd7TupHpeDx3gw2kGaPYZ4zyjrpwKiFeqpzkcAadH","name":"square-hazel-kitten","lat":51.51230598,"lng":-0.04727099381,"beac_rate":0.9,"ref_rss":-101.1716721,"w_N":23,"w_NE":23,"w_E":12,"w_SE":28,"w_S":16,"w_SW":17,"w_W":6,"w_NW":27,"nr_witn":152,"total_reward":0.5286838,"avg_reward":0.03524558667},{"address":"112v8ifREXBseV26W5FN4zbPEmJ1pAdECTUdqnHJbmxJUwHdL1eN","name":"tricky-plastic-mustang","lat":51.43262945,"lng":-0.1371476482,"beac_rate":1,"ref_rss":-116.9472017,"w_N":0,"w_NE":9,"w_E":0,"w_SE":10,"w_S":3,"w_SW":0,"w_W":0,"w_NW":1,"nr_witn":23,"total_reward":15.91558808,"avg_reward":1.061039205},{"address":"11KvhG5qhrpRMj5fBt98pHGGh6Cz8E49rhH7w7aHe651NPLSC5W","name":"melted-golden-huskie","lat":51.45332663,"lng":-0.1726176661,"beac_rate":0.8080808081,"ref_rss":-108.4904149,"w_N":6,"w_NE":22,"w_E":6,"w_SE":21,"w_S":24,"w_SW":4,"w_W":0,"w_NW":6,"nr_witn":89,"total_reward":1.49621282,"avg_reward":0.09974752133},{"address":"112mQMB3X6GUt3Zo524pvyijmyXU59PA2e5TiK3d9PWGjPoa4DtW","name":"oblong-honeysuckle-robin","lat":51.63751668,"lng":-0.158276477,"beac_rate":1,"ref_rss":-79.04305819,"w_N":17,"w_NE":0,"w_E":4,"w_SE":3,"w_S":0,"w_SW":3,"w_W":8,"w_NW":47,"nr_witn":82,"total_reward":5.6630925,"avg_reward":0.3775395},{"address":"112SjZaxgWcvy5oPWehukUQaoJdCN7J6aSWwfk7AqStXyyMfhpDe","name":"bumpy-pear-wasp","lat":51.51389253,"lng":-0.08237949641,"beac_rate":0.8936170213,"ref_rss":-104.1988457,"w_N":22,"w_NE":23,"w_E":2,"w_SE":5,"w_S":27,"w_SW":24,"w_W":9,"w_NW":17,"nr_witn":129,"total_reward":0.86818941,"avg_reward":0.057879294},{"address":"112uuwGpCYf1WwQKZpgKc9SJg1fZ85L4atgVyHcxS45fu7mBGzo","name":"sharp-dijon-ferret","lat":51.56947219,"lng":-0.08718452236,"beac_rate":0.9777777778,"ref_rss":-94.26705717,"w_N":37,"w_NE":29,"w_E":19,"w_SE":16,"w_S":13,"w_SW":10,"w_W":4,"w_NW":24,"nr_witn":152,"total_reward":0.82113728,"avg_reward":0.05474248533},{"address":"1195hFysQJExvU8udE1weFhVzLTpaHk31bAJ2LuC8CH42efaesf","name":"cheerful-iron-horse","lat":51.60789477,"lng":-0.2366192172,"beac_rate":0.7142857143,"ref_rss":-70.87416595,"w_N":5,"w_NE":0,"w_E":0,"w_SE":1,"w_S":3,"w_SW":13,"w_W":9,"w_NW":9,"nr_witn":40,"total_reward":2.42802702,"avg_reward":0.161868468},{"address":"112AAABfDfoi1hPbruse1MkJbd5XZkcEL5pguEFMUnF5uJTMgj5y","name":"digital-grape-goose","lat":51.53460866,"lng":0.06028250746,"beac_rate":0.75,"ref_rss":-106.5845545,"w_N":1,"w_NE":0,"w_E":4,"w_SE":2,"w_S":6,"w_SW":2,"w_W":2,"w_NW":1,"nr_witn":18,"total_reward":0.14393442,"avg_reward":0.009595628},{"address":"112uGmp3uK7czEpvbnBExguF2GKdwVVRHVzLrY259uJiQMnQjVkc","name":"narrow-linen-mule","lat":51.58301548,"lng":-0.2377820271,"beac_rate":0.9210526316,"ref_rss":-107.6799352,"w_N":13,"w_NE":4,"w_E":7,"w_SE":8,"w_S":17,"w_SW":11,"w_W":5,"w_NW":19,"nr_witn":84,"total_reward":2.42426974,"avg_reward":0.1616179827},