[{"address":"11fjtGeLya3G3WyaGYU5RQUFDYxindLhgDqwYdybfmFktY7faY5","name":"eager-olive-ferret","lat":51.57190208,"lng":-0.12980228,"beac_rate":1.5,"ref_rss":-107.45,"w_N":12,"w_NE":1,"w_E":0,"w_SE":1,"w_S":2,"w_SW":3,"w_W":8,"w_NW":22},{"address":"1121z5rQtnbXpBcnVwYA48TjghWnSUp6RrEV9SHNcSdttgaRZVWA","name":"crazy-mahogany-nightingale","lat":51.56006258,"lng":-0.0682653,"beac_rate":5.5,"ref_rss":-108.14,"w_N":15,"w_NE":9,"w_E":2,"w_SE":3,"w_S":20,"w_SW":20,"w_W":25,"w_NW":21},{"address":"11o4QnMnjQr4Nv2cXstd93YHGZxFH4UyivDarzNXiCUNpiqCNLy","name":"delightful-scarlet-liger","lat":51.47633549,"lng":-0.08747021,"beac_rate":5,"ref_rss":-98.77,"w_N":12,"w_NE":10,"w_E":7,"w_SE":7,"w_S":12,"w_SW":18,"w_W":2,"w_NW":5},{"address":"112hqCgnHnymydi6Kji47bd6LAMCABtXcUH8iwQxW9jWWHazrDcw","name":"nice-sky-poodle","lat":51.53076797,"lng":0.0203022,"beac_rate":5,"ref_rss":-86.79,"w_N":1,"w_NE":4,"w_E":4,"w_SE":12,"w_S":58,"w_SW":17,"w_W":16,"w_NW":26},{"address":"112StNcDqSxhqsojVSxiqthgUAjkd4bet2sfrXPL7z4o1Ce6vwGz","name":"happy-ivory-mule","lat":51.46569275,"lng":-0.10235568,"beac_rate":3,"ref_rss":-81.61,"w_N":20,"w_NE":24,"w_E":19,"w_SE":15,"w_S":22,"w_SW":4,"w_W":1,"w_NW":5},{"address":"11PtGeQwpL52JccKCa3gGRjjmyCX7cUsECriCtuBy3yoHnkjDSN","name":"short-infrared-blackbird","lat":51.44579288,"lng":0.08302943,"beac_rate":15,"ref_rss":-71.65,"w_N":0,"w_NE":4,"w_E":9,"w_SE":19,"w_S":35,"w_SW":5,"w_W":0,"w_NW":0},{"address":"11mPKDYnQejyj11K7Wq5CHy5ri2KMm72eAV2XP2g6kTZgJGZ9hd","name":"dapper-gingerbread-poodle","lat":51.50964599,"lng":-0.03680753,"beac_rate":7.5,"ref_rss":-100.75,"w_N":8,"w_NE":6,"w_E":4,"w_SE":13,"w_S":19,"w_SW":14,"w_W":2,"w_NW":7},{"address":"112MpuqMuYWZgTUSztGRGRg4q1r35c1sbxz5AQWurJ88L1jJm6Dd","name":"cool-shadow-cuckoo","lat":51.49617738,"lng":0.08190068,"beac_rate":2.5,"ref_rss":-51.63,"w_N":1,"w_NE":1,"w_E":0,"w_SE":15,"w_S":35,"w_SW":7,"w_W":3,"w_NW":4},{"address":"112ZRg9VTdrNcRrVZqLqHbfNE6h3s42rNuRo5qeAdb2VaogK6KQt","name":"generous-fern-nuthatch","lat":51.62071129,"lng":-0.02104426,"beac_rate":3,"ref_rss":-86.74,"w_N":0,"w_NE":1,"w_E":1,"w_SE":1,"w_S":18,"w_SW":28,"w_W":24,"w_NW":9},{"address":"11MzESKEKdhFGLmsoBRDjU1Y8L8fGF2rbZCMHdbUvMMwbwkioXf","name":"small-misty-mandrill","lat":51.56580116,"lng":-0.09418895,"beac_rate":2.5,"ref_rss":-114.92,"w_N":13,"w_NE":1,"w_E":0,"w_SE":7,"w_S":12,"w_SW":16,"w_W":6,"w_NW":16},{"address":"11DAqZsckEw9RkTQgdRuJRVW24CBktWZVd1dB7NaLpQqS6CHQms","name":"flaky-aquamarine-llama","lat":51.50619958,"lng":-0.00430803,"beac_rate":2,"ref_rss":-109.2,"w_N":10,"w_NE":4,"w_E":1,"w_SE":2,"w_S":8,"w_SW":1,"w_W":0,"w_NW":6},{"address":"11QzYNPhhAL7oUNu22z9zDRQa7BRevNzHbU5bkJa2VNUiRQTKU3","name":"suave-sepia-hedgehog","lat":51.41361169,"lng":-0.18121495,"beac_rate":3.5,"ref_rss":-110.25,"w_N":4,"w_NE":6,"w_E":6,"w_SE":20,"w_S":4,"w_SW":0,"w_W":0,"w_NW":0},{"address":"11LFJy2TvSwyFKMcFhxNrzsnhmwiwCGbHnQ4BLf1AtDEShDC8Yi","name":"zealous-daisy-hare","lat":51.49171493,"lng":-0.09770342,"beac_rate":8.5,"ref_rss":-105.43,"w_N":21,"w_NE":9,"w_E":9,"w_SE":5,"w_S":34,"w_SW":30,"w_W":12,"w_NW":11},{"address":"11QzYNPhhAL7oUNu22z9zDRQa7BRevNzHbU5bkJa2VNUiRQTKU3","name":"suave-sepia-hedgehog","lat":51.41361169,"lng":-0.18121495,"beac_rate":6,"ref_rss":-115.22,"w_N":3,"w_NE":6,"w_E":10,"w_SE":21,"w_S":4,"w_SW":0,"w_W":0,"w_NW":0},{"address":"11LFJy2TvSwyFKMcFhxNrzsnhmwiwCGbHnQ4BLf1AtDEShDC8Yi","name":"zealous-daisy-hare","lat":51.49171493,"lng":-0.09770342,"beac_rate":8.5,"ref_rss":-105.88,"w_N":20,"w_NE":9,"w_E":9,"w_SE":7,"w_S":33,"w_SW":28,"w_W":12,"w_NW":9},{"address":"112PuhmECMATJCQQidbDfRpEKyzm2TeonoHb95Q9xujx83zah1gH","name":"happy-watermelon-tardigrade","lat":51.45556498,"lng":-0.13283867,"beac_rate":6.5,"ref_rss":-117.35,"w_N":13,"w_NE":13,"w_E":11,"w_SE":7,"w_S":2,"w_SW":5,"w_W":3,"w_NW":5},{"address":"11otWaNYQdq98mbnxBGdpFQFXmaD6cgPTeSvujnA7p6i3twdb3x","name":"shallow-coral-lizard","lat":51.53001228,"lng":-0.01687927,"beac_rate":4.5,"ref_rss":-111.07,"w_N":7,"w_NE":5,"w_E":8,"w_SE":7,"w_S":36,"w_SW":18,"w_W":3,"w_NW":16},{"address":"11t5yTEHKDrqMyVe5EV6hpn4nF2FEcQMFHnobHJNCu5ZzpMwpqG","name":"brief-marigold-albatross","lat":51.47561426,"lng":-0.14857856,"beac_rate":14.5,"ref_rss":-104.11,"w_N":59,"w_NE":16,"w_E":3,"w_SE":7,"w_S":11,"w_SW":5,"w_W":1,"w_NW":20},{"address":"112RApfQwKVJQkDvKeQNQ6SbLQ67r69Er8DAR6UUak9CiBGRHgLc","name":"rhythmic-metal-vulture","lat":51.56011673,"lng":0.04951185,"beac_rate":1.5,"ref_rss":-89.13,"w_N":0,"w_NE":0,"w_E":0,"w_SE":0,"w_S":2,"w_SW":9,"w_W":7,"w_NW":9},{"address":"11hZJJK2Fe8YyQJAYge88zJoMchJrA5hpzr9fR8GgnAtDF148uE","name":"sticky-mahogany-narwhal","lat":51.63391753,"lng":-0.06619286,"beac_rate":2,"ref_rss":-91.49,"w_N":2,"w_NE":0,"w_E":0,"w_SE":0,"w_S":6,"w_SW":18,"w_W":26,"w_NW":21},{"address":"11i9KNmRFwVrwAkja4EiwiAUV8FCyerKiFiPSjCt5VuDXtpB126","name":"generous-tangerine-ostrich","lat":51.56143498,"lng":0.01367092,"beac_rate":9,"ref_rss":-107.8,"w_N":3,"w_NE":0,"w_E":2,"w_SE":21,"w_S":54,"w_SW":7,"w_W":9,"w_NW":11},{"address":"11WanmvzzCnyhNUTEDWrBk47p9h3Q42w5FtW6ahCgBG8A7PxHwZ","name":"rare-charcoal-rabbit","lat":51.49859624,"lng":-0.20339024,"beac_rate":9,"ref_rss":-102.28,"w_N":40,"w_NE":6,"w_E":6,"w_SE":2,"w_S":15,"w_SW":16,"w_W":21,"w_NW":35},{"address":"11xmtQ5BgSocrKjdQAttzYorGhdGxbLnnmJPnXGkhmgVENu3gKw","name":"narrow-blue-condor","lat":51.50902071,"lng":0.01507837,"beac_rate":6,"ref_rss":-105.01,"w_N":6,"w_NE":6,"w_E":15,"w_SE":8,"w_S":8,"w_SW":4,"w_W":3,"w_NW":9},{"address":"11GvtyDL9AtwC8HALcmbrfYMzi88kUNkN1Bnps1VwSUgPTey6pf","name":"tiny-ivory-cyborg","lat":51.46373686,"lng":-0.16301302,"beac_rate":2.5,"ref_rss":-115.4,"w_N":24,"w_NE":23,"w_E":7,"w_SE":12,"w_S":7,"w_SW":2,"w_W":1,"w_NW":3},{"address":"11bxuejXKaDmaitwRL2KRJwcvtG4FT8mZ33LkBmNWE2DiGDDHfc","name":"urban-pecan-sawfish","lat":51.53935463,"lng":-0.08372708,"beac_rate":2,"ref_rss":-100.87,"w_N":13,"w_NE":9,"w_E":2,"w_SE":6,"w_S":9,"w_SW":3,"w_W":0,"w_NW":8},{"address":"112nN8epfFdjexFgWG6kGBQbtMQjdBxDinAWYeZZc3TrVv2WcBJV","name":"energetic-citron-woodpecker","lat":51.56161027,"lng":-0.27883563,"beac_rate":1.5,"ref_rss":-105.45,"w_N":16,"w_NE":1,"w_E":1,"w_SE":0,"w_S":0,"w_SW":0,"w_W":5,"w_NW":16},{"address":"11TzYLtbSSjswA7sGk4LesHXM2sjJTPeaDYKGMyLVZC5KULFu5i","name":"hot-chocolate-lizard","lat":51.4863137,"lng":0.09827998,"beac_rate":3,"ref_rss":-83.94,"w_N":3,"w_NE":0,"w_E":1,"w_SE":20,"w_S":27,"w_SW":1,"w_W":0,"w_NW":0},{"address":"112d9dnKdAYRHcJg1iQ5pkGVpbjL8AVhSPZoETFzwK9fu9kk78D2","name":"blurry-lilac-skunk","lat":51.49914799,"lng":-0.0191335,"beac_rate":4.5,"ref_rss":-99.37,"w_N":5,"w_NE":1,"w_E":1,"w_SE":4,"w_S":38,"w_SW":25,"w_W":6,"w_NW":6},{"address":"112P2SikUS2ByeYnYw8GR7DchKQgc8b7WbHciFWdLeqrHbEte5X2","name":"tangy-eggplant-copperhead","lat":51.59280267,"lng":-0.07451271,"beac_rate":6,"ref_rss":-102.8,"w_N":2,"w_NE":0,"w_E":0,"w_SE":0,"w_S":2,"w_SW":3,"w_W":35,"w_NW":8},{"address":"11a8XyeYqGbyg8ac78KHBjrWead47Z7xYUgJbjzvWqG4HpLxxwL","name":"agreeable-iris-robin","lat":51.53028319,"lng":-0.14458334,"beac_rate":7.5,"ref_rss":-113.47,"w_N":8,"w_NE":10,"w_E":4,"w_SE":7,"w_S":8,"w_SW":4,"w_W":0,"w_NW":4},{"address":"112ABzDR4ks5NjFL9ayio94N23M7NtvtupYss1QCZGNYqdJy6nbD","name":"expert-macaroon-carp","lat":51.46452303,"lng":-0.20966341,"beac_rate":9.5,"ref_rss":-113.11,"w_N":16,"w_NE":13,"w_E":8,"w_SE":11,"w_S":6,"w_SW":4,"w_W":0,"w_NW":9},{"address":"11p5EMq6ddgLRgDceA1sGCFePFyBsyJQiUyVNxz1YoLvb9QV5ic","name":"delightful-powder-pigeon","lat":51.50121987,"lng":0.0544243,"beac_rate":10,"ref_rss":-114.48,"w_N":8,"w_NE":0,"w_E":1,"w_SE":6,"w_S":23,"w_SW":12,"w_W":5,"w_NW":13},{"address":"112TtyfCEcrd1aXfoqGEpS6rbRCP3mBmeK9HpBnHYvt49CCiNBUz","name":"large-ivory-sealion","lat":51.4527142,"lng":0.06376466,"beac_rate":10.5,"ref_rss":-101.3,"w_N":2,"w_NE":0,"w_E":3,"w_SE":8,"w_S":23,"w_SW":1,"w_W":5,"w_NW":1},{"address":"11zhGhx7Akf5J1AnE3HS4bHoMQar14Z5sNyCZf1MFJLqcZu2x8s","name":"recumbent-mandarin-wasp","lat":51.49205086,"lng":-0.025381,"beac_rate":1.5,"ref_rss":-89.5,"w_N":4,"w_NE":2,"w_E":9,"w_SE":23,"w_S":17,"w_SW":3,"w_W":2,"w_NW":0},{"address":"1122FTd1rygXy5jE5pNC4rqNEbZQ4smCMSYZA8AA7mwX1CTzj9jG","name":"soaring-carrot-koala","lat":51.56674525,"lng":-0.26517509,"beac_rate":10.5,"ref_rss":-109.42,"w_N":2,"w_NE":4,"w_E":4,"w_SE":1,"w_S":1,"w_SW":1,"w_W":3,"w_NW":5},{"address":"112upXsgd1cCwXrjnsj4brMRKSfjy53Jkeuo4q5FmJ5cmVhzPZta","name":"acidic-grape-swallow","lat":51.51621394,"lng":-0.05999725,"beac_rate":13.5,"ref_rss":-103.89,"w_N":5,"w_NE":7,"w_E":4,"w_SE":7,"w_S":9,"w_SW":5,"w_W":4,"w_NW":12},{"address":"11AiXRiR1MJ9WT4CF8TAZg7VcaBZH4jRwkgpL5n8dPabABt7Eab","name":"boxy-emerald-crab","lat":51.55823966,"lng":-0.11529466,"beac_rate":6,"ref_rss":-115.05,"w_N":14,"w_NE":3,"w_E":1,"w_SE":4,"w_S":7,"w_SW":4,"w_W":2,"w_NW":2},{"address":"112i25AMbQKSfQFv6f6Cye44WrtJVCb3zomcCCNm6zg96vBZsSxb","name":"fluffy-sepia-eel","lat":51.49700729,"lng":0.0124142,"beac_rate":4,"ref_rss":-113.26,"w_N":7,"w_NE":7,"w_E":7,"w_SE":17,"w_S":43,"w_SW":11,"w_W":5,"w_NW":12},{"address":"11fSygjKWRHqHVftsD7NsSq8wwg1ENhizLKfpys6K2AFHFLc2Ki","name":"odd-smoke-goose","lat":51.48871713,"lng":-0.03683737,"beac_rate":2.5,"ref_rss":-76.56,"w_N":7,"w_NE":4,"w_E":4,"w_SE":14,"w_S":47,"w_SW":9,"w_W":5,"w_NW":0},{"address":"116QWZPfFWKWGPunXTWQVBXC9F21qUyt83pvKhfLLeu2oN12AKj","name":"petite-carmine-turtle","lat":51.52865318,"lng":-0.06230863,"beac_rate":3,"ref_rss":-101.19,"w_N":15,"w_NE":9,"w_E":9,"w_SE":9,"w_S":23,"w_SW":13,"w_W":12,"w_NW":14},{"address":"119sn1USRUxEcAewrZkxQ7VSZR75EVErzTz6StwWV1uHARAAJtA","name":"sharp-fuchsia-lizard","lat":51.49923669,"lng":-0.00882932,"beac_rate":9.5,"ref_rss":-96.22,"w_N":21,"w_NE":12,"w_E":6,"w_SE":9,"w_S":15,"w_SW":6,"w_W":4,"w_NW":17},{"address":"112V8euHbozSGBDNiyz3p3BXKAE26xUV1Qg1n27sCAr5TZKP9YBq","name":"noisy-holographic-goldfish","lat":51.56278451,"lng":-0.08328658,"beac_rate":0.5,"ref_rss":-91.15,"w_N":0,"w_NE":0,"w_E":0,"w_SE":0,"w_S":2,"w_SW":1,"w_W":2,"w_NW":3},{"address":"119PK7orVBRBBnduWUj566PSK1xvJLA5h7yHQknWRWaB5HWpWPi","name":"micro-foggy-poodle","lat":51.59376745,"lng":-0.24960508,"beac_rate":7.5,"ref_rss":-98.96,"w_N":6,"w_NE":2,"w_E":0,"w_SE":0,"w_S":4,"w_SW":8,"w_W":7,"w_NW":12},{"address":"112egyp7uWgZAGCXXBGQfpYrvdrtbFMEaHc7tHZ9bbi1Kue1xNQx","name":"interesting-mandarin-monkey","lat":51.50479428,"lng":-0.04360882,"beac_rate":9,"ref_rss":-109.57,"w_N":16,"w_NE":8,"w_E":6,"w_SE":24,"w_S":15,"w_SW":16,"w_W":11,"w_NW":19},{"address":"112QZQ15rRnkywdqWWdU4vLf8pq9Eq56pLyZbhf2K66rQYFrqHot","name":"mean-merlot-lobster","lat":51.52641469,"lng":-0.09353069,"beac_rate":0.5,"ref_rss":-101.4,"w_N":10,"w_NE":0,"w_E":2,"w_SE":4,"w_S":1,"w_SW":2,"w_W":1,"w_NW":1},{"address":"11sdvaokV43qqBaCGGTqx4YamKysvWAEofTJXBrnUyxbJm9M3hE","name":"small-lilac-aphid","lat":51.61739637,"lng":-0.15034288,"beac_rate":19,"ref_rss":-86.58,"w_N":4,"w_NE":2,"w_E":1,"w_SE":1,"w_S":5,"w_SW":0,"w_W":1,"w_NW":1},{"address":"112ZhNcaC9BuJkT8R69Dfss9pV1CVtChAcpmdypxYhDqm8smMWXY","name":"eager-silver-puppy","lat":51.5295217,"lng":-0.18545157,"beac_rate":2.5,"ref_rss":-96.8,"w_N":7,"w_NE":0,"w_E":0,"w_SE":2,"w_S":8,"w_SW":10,"w_W":3,"w_NW":4},{"address":"114cDdHXjwU8mhxt1YXYmynj8uAcKRWSGEdBaVAgrgHo9YyQQgb","name":"shiny-amber-ferret","lat":51.52437727,"lng":-0.0291079,"beac_rate":3.5,"ref_rss":-119.23,"w_N":3,"w_NE":3,"w_E":0,"w_SE":17,"w_S":15,"w_SW":11,"w_W":5,"w_NW":3},{"address":"112PtpjyC8Tdt8WNy3LU5zpg4LAfzry2mj4RGydsRei7giCQnMUg","name":"cuddly-berry-mantis","lat":51.45525318,"lng":-0.22936728,"beac_rate":6,"ref_rss":-103.17,"w_N":18,"w_NE":50,"w_E":11,"w_SE":13,"w_S":2,"w_SW":2,"w_W":0,"w_NW":1},{"address":"112FhuwcD7Eybju6wLPUjZ9soCAch5bkx5XgT2MDgXzG6EcsWop","name":"spare-silver-sardine","lat":51.43204384,"lng":-0.1496637,"beac_rate":11,"ref_rss":-122.11,"w_N":2,"w_NE":4,"w_E":6,"w_SE":12,"w_S":21,"w_SW":5,"w_W":0,"w_NW":2},{"address":"112RkNZZ6RTCov7mGtzCg9TzkSB57o5su1kbp63aqJLPidCxtTVf","name":"shallow-lavender-seahorse","lat":51.4952861,"lng":0.01740322,"beac_rate":14.5,"ref_rss":-117.02,"w_N":9,"w_NE":7,"w_E":8,"w_SE":8,"w_S":3,"w_SW":2,"w_W":2,"w_NW":4},{"address":"11SPyFLka7LDB2KyjEG6CkPqRjZuW9N3FCmgfPZCuK2nywywKi1","name":"dry-aquamarine-panda","lat":51.4768542,"lng":-0.13821665,"beac_rate":6.5,"ref_rss":-101.8,"w_N":31,"w_NE":9,"w_E":5,"w_SE":3,"w_S":7,"w_SW":3,"w_W":2,"w_NW":7},{"address":"11m4pU6MrAqw1xr6dxMvGGiMdNSY684GH46QjGJwNWtEpqwrHEf","name":"long-magenta-narwhal","lat":51.49124263,"lng":-0.18129524,"beac_rate":5.5,"ref_rss":-96.77,"w_N":27,"w_NE":15,"w_E":8,"w_SE":12,"w_S":21,"w_SW":18,"w_W":8,"w_NW":13},{"address":"11L8T2xN1APhVHYtyM7DNDdvJkBVAQjhx4FMWPbpyAJ6qgcrQYM","name":"large-mint-cyborg","lat":51.59761643,"lng":-0.07084089,"beac_rate":8,"ref_rss":-114.35,"w_N":16,"w_NE":6,"w_E":3,"w_SE":1,"w_S":6,"w_SW":5,"w_W":4,"w_NW":20},{"address":"11TRR3JQ8Abbo5Thdbyi8repPvuxAJq6u4BFEGnEnu3WSYQ8NcV","name":"genuine-sepia-moth","lat":51.5451486,"lng":-0.07405837,"beac_rate":2,"ref_rss":-71.77,"w_N":11,"w_NE":5,"w_E":3,"w_SE":4,"w_S":11,"w_SW":5,"w_W":11,"w_NW":20},{"address":"112Ztf87NTmFZrQyAM2igkeyzhTNiMrywHzLTV9H57cLm1qBUcFb","name":"eager-orchid-dalmatian","lat":51.4721754,"lng":0.06732589,"beac_rate":14.5,"ref_rss":-92.75,"w_N":0,"w_NE":2,"w_E":8,"w_SE":14,"w_S":6,"w_SW":0,"w_W":0,"w_NW":0},{"address":"11dcDrCFMS2TqV8HVTeZsmCGLNgeX2GKnuujLBRobifFJqAadtV","name":"large-tangerine-liger","lat":51.52626662,"lng":-0.13786391,"beac_rate":5,"ref_rss":-104.15,"w_N":36,"w_NE":20,"w_E":11,"w_SE":10,"w_S":9,"w_SW":0,"w_W":1,"w_NW":7},{"address":"112jQCBbvUhhvCnqu9EeTtCVBerYaShPQdJ37jw8oUBRjWwe7MNa","name":"lively-opaque-gibbon","lat":51.53730988,"lng":-0.00848719,"beac_rate":2,"ref_rss":-90.14,"w_N":2,"w_NE":0,"w_E":4,"w_SE":1,"w_S":28,"w_SW":24,"w_W":5,"w_NW":4},{"address":"112uJSo2BRT9os846q1J7bZ2YV7rVo6Tom1EfqZQsAtEnPKpSZtf","name":"precise-porcelain-anteater","lat":51.47329146,"lng":-0.1542893,"beac_rate":16,"ref_rss":-113.4,"w_N":7,"w_NE":4,"w_E":0,"w_SE":2,"w_S":6,"w_SW":6,"w_W":0,"w_NW":6},{"address":"11KP8RwMrehBBkSAUQnSmZUtsBht2nATn8eRvmWZ3pv3g4XWT76","name":"clumsy-lemonade-cormorant","lat":51.480361,"lng":-0.20327276,"beac_rate":1,"ref_rss":-99.2,"w_N":7,"w_NE":3,"w_E":0,"w_SE":5,"w_S":5,"w_SW":2,"w_W":3,"w_NW":3},{"address":"11kNoeMC44Az5w3aGFZzuTcMjUKXL6sEhACFYUrB6FDQ7ZTFuLQ","name":"proud-paisley-snake","lat":51.47546168,"lng":0.02259894,"beac_rate":23.5,"ref_rss":-103.77,"w_N":3,"w_NE":2,"w_E":1,"w_SE":8,"w_S":4,"w_SW":0,"w_W":0,"w_NW":8},{"address":"11NR3wa3dwAy6Dx8BdLJkYGXVC9ka6gNz6SAwZmqGgd3D5ZC5UQ","name":"genuine-mulberry-snake","lat":51.46446869,"lng":0.04140759,"beac_rate":6,"ref_rss":-86.37,"w_N":3,"w_NE":3,"w_E":3,"w_SE":17,"w_S":21,"w_SW":8,"w_W":8,"w_NW":10},{"address":"11uxn9LsBLZUEiXuA3BggApGtiZPRmw4rvGTnpnMvtBKxoqi8ey","name":"agreeable-menthol-owl","lat":51.47450532,"lng":0.03975867,"beac_rate":4.5,"ref_rss":-101.32,"w_N":2,"w_NE":6,"w_E":7,"w_SE":35,"w_S":41,"w_SW":3,"w_W":1,"w_NW":3},{"address":"112UyfHLt7N6J8YiwwXe61n4xVG6AP5YwXRhfSfD5vi6qBveemhf","name":"magic-lace-mule","lat":51.48593156,"lng":0.10792368,"beac_rate":23.5,"ref_rss":-105.95,"w_N":1,"w_NE":0,"w_E":0,"w_SE":6,"w_S":19,"w_SW":1,"w_W":1,"w_NW":0},{"address":"112KM12Vy7KSrC4srnCqebsz2z7hf9iiRjqtqb1ZniCdM24Wt2FV","name":"bouncy-marmalade-frog","lat":51.50689464,"lng":-0.04498378,"beac_rate":2.5,"ref_rss":-110.32,"w_N":8,"w_NE":6,"w_E":5,"w_SE":16,"w_S":21,"w_SW":8,"w_W":4,"w_NW":6},{"address":"113PioD6JvdHfXfjApXm97DCQdKPajVdLGaPs9ZCnaKwG4TuCEE","name":"cheerful-fuchsia-grasshopper","lat":51.50783615,"lng":-0.06464209,"beac_rate":8.5,"ref_rss":-117.19,"w_N":19,"w_NE":13,"w_E":11,"w_SE":2,"w_S":8,"w_SW":17,"w_W":9,"w_NW":15},{"address":"112o3yJfs1W5tCk8bZFQJbN27Fseqner2xzm3x8yawfjzPsYZPYJ","name":"original-orchid-wallaby","lat":51.44216605,"lng":0.019399,"beac_rate":17.5,"ref_rss":-113.9,"w_N":10,"w_NE":9,"w_E":3,"w_SE":3,"w_S":22,"w_SW":2,"w_W":0,"w_NW":2},{"address":"112hktrMXA6YN8v6UahvbqvDkduK9RmUGmt5w2fjpewkHAYFPE7N","name":"spare-candy-kookaburra","lat":51.41448484,"lng":-0.11414367,"beac_rate":2,"ref_rss":-110.72,"w_N":0,"w_NE":2,"w_E":2,"w_SE":13,"w_S":10,"w_SW":1,"w_W":0,"w_NW":1},{"address":"11512YJJYAj8vb3P5pN3LcPyKQxx21KTrtqE9GgnaDNNRDt37zY","name":"soft-gingham-nightingale","lat":51.47416827,"lng":0.04668645,"beac_rate":4.5,"ref_rss":-100.49,"w_N":1,"w_NE":1,"w_E":1,"w_SE":6,"w_S":25,"w_SW":7,"w_W":3,"w_NW":1},{"address":"112NdeXSu35uo1UYmJAE7PqNXxi8JW8Nhw7zi3WMrqxxryNGD3Wn","name":"original-plum-blackbird","lat":51.53295585,"lng":0.06320852,"beac_rate":5,"ref_rss":-128.95,"w_N":0,"w_NE":0,"w_E":2,"w_SE":0,"w_S":2,"w_SW":0,"w_W":5,"w_NW":0},{"address":"116bHw2FEwaJngPASxtXiTXHgA9A8XHims7j7vXVQiqRCFYj7PR","name":"rare-coconut-sardine","lat":51.53328257,"lng":-0.05087746,"beac_rate":3,"ref_rss":-108.87,"w_N":11,"w_NE":7,"w_E":1,"w_SE":12,"w_S":24,"w_SW":17,"w_W":7,"w_NW":10},{"address":"112AxVBFZawVWG2Z82ErTNn4NcnhYjjtVZF4UyEjrrygZFFGSNrr","name":"basic-turquoise-osprey","lat":51.4196222,"lng":-0.13744458,"beac_rate":14,"ref_rss":-123.47,"w_N":3,"w_NE":5,"w_E":1,"w_SE":12,"w_S":6,"w_SW":1,"w_W":0,"w_NW":2},{"address":"112cYg7ajzUpYvgnbJHwvjcqCdTQ49XDmXXrRqDD48c9TyKo2uJA","name":"tame-onyx-shetland","lat":51.52756381,"lng":-0.0517991,"beac_rate":13,"ref_rss":-116.05,"w_N":4,"w_NE":4,"w_E":3,"w_SE":4,"w_S":9,"w_SW":2,"w_W":2,"w_NW":6},{"address":"112cFQGhPaA4hFPRxJTB7i8aLcu9UXdPmJs8vw9tRetjUAWvsFqi","name":"melodic-dijon-tapir","lat":51.44823178,"lng":-0.18311465,"beac_rate":5.5,"ref_rss":-66.02,"w_N":2,"w_NE":3,"w_E":9,"w_SE":12,"w_S":7,"w_SW":6,"w_W":3,"w_NW":1},{"address":"112oiERzMWF3Lxu4zEZRB9Gu3deSwsqJZtowyHGAErHcffjhfyBM","name":"expert-dijon-crocodile","lat":51.48025778,"lng":-0.03851236,"beac_rate":6,"ref_rss":-82.37,"w_N":43,"w_NE":26,"w_E":11,"w_SE":16,"w_S":21,"w_SW":7,"w_W":0,"w_NW":10},{"address":"11B8ZGpsJSg68rq7kmsERpcyAVGk9pC8NVMvW6Z8ckYUQqBuyR2","name":"skinny-gingham-gecko","lat":51.48218853,"lng":-0.19548247,"beac_rate":4.5,"ref_rss":-97.03,"w_N":29,"w_NE":6,"w_E":9,"w_SE":7,"w_S":16,"w_SW":9,"w_W":7,"w_NW":6},{"address":"11PRcaoABbwchzmAT4hzNQK4NyjKGKaGQfB9Sry6afXQyEgEMz8","name":"rapid-stone-crocodile","lat":51.44053413,"lng":-0.19939314,"beac_rate":14.5,"ref_rss":-55.75,"w_N":8,"w_NE":4,"w_E":1,"w_SE":1,"w_S":0,"w_SW":0,"w_W":3,"w_NW":0},{"address":"11wQyfoD8W7eBDewj4FobJHD4FuGMZfWgv9n3hZUyqW7GLcjrVq","name":"noisy-cinnabar-deer","lat":51.5104162,"lng":-0.06380331,"beac_rate":2.5,"ref_rss":-87.75,"w_N":10,"w_NE":7,"w_E":10,"w_SE":9,"w_S":12,"w_SW":12,"w_W":4,"w_NW":9},{"address":"112j3Rb5FjAAKNWAGsvjesNuVTbgjf1FUUvhEyWoXwfLEBed8PAs","name":"sleepy-slate-starling","lat":51.51657505,"lng":-0.10052661,"beac_rate":1.5,"ref_rss":-94.54,"w_N":11,"w_NE":15,"w_E":7,"w_SE":9,"w_S":10,"w_SW":2,"w_W":4,"w_NW":4},{"address":"112hCxduxdrDtQ32MtvoNeJrg6t7TZ9MWq91BvRMe9Q1bBo5jCEC","name":"plain-oily-narwhal","lat":51.55702382,"lng":-0.00395945,"beac_rate":12.5,"ref_rss":-113.89,"w_N":3,"w_NE":2,"w_E":4,"w_SE":1,"w_S":7,"w_SW":4,"w_W":4,"w_NW":17},{"address":"112bJZg2xNLq9q4wLpvtZ6wfZrWENXJfiDh3DYJ34y4FbmuFm835","name":"late-sage-puppy","lat":51.54921891,"lng":0.03047943,"beac_rate":20,"ref_rss":-87.5,"w_N":1,"w_NE":1,"w_E":1,"w_SE":4,"w_S":18,"w_SW":4,"w_W":2,"w_NW":3},{"address":"11c5oHUGaRHHZR2CcENFDEKmALWLA7o2EwzhK6kDxG2FnFqVXBW","name":"atomic-peanut-butterfly","lat":51.54983325,"lng":0.02609191,"beac_rate":5.5,"ref_rss":-84.19,"w_N":8,"w_NE":2,"w_E":0,"w_SE":12,"w_S":15,"w_SW":10,"w_W":15,"w_NW":18},{"address":"11extqrScac6sDosn94G1oVUEwSMgQAmg9TeiNM2iFT98wvVXSN","name":"soft-boysenberry-whale","lat":51.53806811,"lng":-0.09293924,"beac_rate":7.5,"ref_rss":-117.28,"w_N":17,"w_NE":9,"w_E":5,"w_SE":6,"w_S":15,"w_SW":7,"w_W":8,"w_NW":18},{"address":"11SChMRaTwpCCkMSqWmnqecLdB8mLcQPifi4KGdcagDA3fiPVYn","name":"puny-punch-baboon","lat":51.59006494,"lng":-0.14634684,"beac_rate":14.5,"ref_rss":-115.61,"w_N":18,"w_NE":0,"w_E":1,"w_SE":0,"w_S":2,"w_SW":0,"w_W":0,"w_NW":20},{"address":"11Do2HE144YQMi7MTkyWNLmxW2tHdKpwhssxggTJ2uxWLMqmTrX","name":"droll-grape-salmon","lat":51.43343944,"lng":-0.18219541,"beac_rate":16.5,"ref_rss":-112.28,"w_N":3,"w_NE":1,"w_E":1,"w_SE":1,"w_S":2,"w_SW":1,"w_W":1,"w_NW":0},{"address":"11UCYWQtS5JiWUwsAd7QpBkFUWFYTuVWJoni6vaVDkvXPcz7W3m","name":"curly-lava-spider","lat":51.59018329,"lng":-0.24875285,"beac_rate":8,"ref_rss":-85.22,"w_N":4,"w_NE":4,"w_E":2,"w_SE":1,"w_S":2,"w_SW":5,"w_W":4,"w_NW":14},{"address":"112WMzk1QX1knLHMSmAjZC9XwB2ZXNc6oua5bPM4ZqiBstTY5NAs","name":"muscular-velvet-capybara","lat":51.47261596,"lng":-0.09421464,"beac_rate":6,"ref_rss":-111.76,"w_N":3,"w_NE":4,"w_E":1,"w_SE":2,"w_S":1,"w_SW":5,"w_W":1,"w_NW":0},{"address":"112nBBp4XVB2TX2QBVHmeUXeEqThZh7rgDAQtcWdH9G3u6hgrTFV","name":"sharp-orange-beetle","lat":51.52655286,"lng":-0.33764647,"beac_rate":5,"ref_rss":-94.52,"w_N":6,"w_NE":2,"w_E":0,"w_SE":0,"w_S":0,"w_SW":0,"w_W":1,"w_NW":2},{"address":"112SHnJ9j2nTNeWkmikQH2Et7R38ze3gNJz5NWF9hZ87v1VX15Rr","name":"merry-infrared-falcon","lat":51.54100143,"lng":-0.12093083,"beac_rate":7.5,"ref_rss":-117.84,"w_N":28,"w_NE":9,"w_E":6,"w_SE":5,"w_S":20,"w_SW":9,"w_W":4,"w_NW":8},{"address":"112pz8GVk3bvjpwjw5GqmJDQNxMeXvVtAtnV7myDm17RquEo8cjQ","name":"huge-alabaster-cobra","lat":51.55065,"lng":-0.06603199,"beac_rate":5,"ref_rss":-101.09,"w_N":14,"w_NE":4,"w_E":3,"w_SE":8,"w_S":17,"w_SW":19,"w_W":22,"w_NW":29},{"address":"117pnbjZBb5FLNMZ9Abg8FmQjEYLCfMsMoad9BM9yKtJqJD33zF","name":"elegant-daffodil-salmon","lat":51.52352544,"lng":-0.20494213,"beac_rate":0.5,"ref_rss":-90.59,"w_N":7,"w_NE":1,"w_E":0,"w_SE":0,"w_S":0,"w_SW":3,"w_W":2,"w_NW":6},{"address":"112N3apvaS6KM3bjZ4LM6EA7Bu5XjtEeDknywpCgE2E3d233Fo2W","name":"cheerful-jade-dolphin","lat":51.50146626,"lng":-0.09268804,"beac_rate":5,"ref_rss":-96.78,"w_N":9,"w_NE":2,"w_E":0,"w_SE":2,"w_S":3,"w_SW":5,"w_W":9,"w_NW":10},{"address":"1123QgAXLDrCex4WFsdNW7i7eiuCc8mj55gQUJdP42WirXXAmsHM","name":"cheerful-ocean-pangolin","lat":51.47793678,"lng":-0.11605339,"beac_rate":3.5,"ref_rss":-89.85,"w_N":22,"w_NE":14,"w_E":10,"w_SE":12,"w_S":19,"w_SW":10,"w_W":7,"w_NW":9},{"address":"112nAbx2j1z6uRnMVeBCHrgMW5P8UKDbUyriGc8prF9HmZcimWo","name":"hollow-lime-rook","lat":51.49310326,"lng":-0.10161897,"beac_rate":2.5,"ref_rss":-110.48,"w_N":2,"w_NE":4,"w_E":1,"w_SE":8,"w_S":32,"w_SW":15,"w_W":5,"w_NW":2},{"address":"11ArHpSAvXJFZJMCc73pMMP86UP4xyRevCVjKrVkwWmCVAmnEbY","name":"ancient-olive-yak","lat":51.52458454,"lng":-0.10041504,"beac_rate":18,"ref_rss":-110.29,"w_N":10,"w_NE":13,"w_E":3,"w_SE":5,"w_S":12,"w_SW":2,"w_W":3,"w_NW":4},{"address":"112RqdTYr5n7uck9bkLPdeqGGZb1bmJWBDcxoiWqmChiJqkT8AMa","name":"hollow-sand-crab","lat":51.46625817,"lng":0.05594079,"beac_rate":5.5,"ref_rss":-84.26,"w_N":0,"w_NE":0,"w_E":0,"w_SE":16,"w_S":45,"w_SW":15,"w_W":9,"w_NW":3},{"address":"11DpwTznqBPNXF6JYFydzz7aXQZMpzaQ5yhSbjFKX5XVAaoZjc8","name":"formal-emerald-perch","lat":51.53109024,"lng":-0.06815096,"beac_rate":16.5,"ref_rss":-109.59,"w_N":13,"w_NE":7,"w_E":3,"w_SE":5,"w_S":10,"w_SW":3,"w_W":7,"w_NW":6},{"address":"112WT3ajtmHTJdhZWYFeKXZvxTpLTEvrdcN6mcebUMEBC1yRDp6i","name":"stable-dijon-octopus","lat":51.578943,"lng":-0.20796491,"beac_rate":11,"ref_rss":-89.13,"w_N":2,"w_NE":0,"w_E":0,"w_SE":3,"w_S":14,"w_SW":5,"w_W":1,"w_NW":5},{"address":"1125oHfLo3uX2ZTJLaodcM6jGmCgbLrmyGbC72ko917xfKbY1Kgb","name":"breezy-nylon-finch","lat":51.50863702,"lng":-0.00181423,"beac_rate":3,"ref_rss":-75.28,"w_N":10,"w_NE":4,"w_E":7,"w_SE":14,"w_S":23,"w_SW":18,"w_W":9,"w_NW":13},{"address":"11amzu2mtXqFPwxUw8mRC3hBSLwfQccCNHJemJ8Gsg3W65tByLF","name":"striped-berry-panther","lat":51.46264213,"lng":-0.0887492,"beac_rate":8,"ref_rss":-89.31,"w_N":9,"w_NE":2,"w_E":0,"w_SE":8,"w_S":10,"w_SW":2,"w_W":5,"w_NW":3},{"address":"11E3gCPEkfYLY2wYEAGRSeH2K24WH2qK2sXjPRhkD8kRvLqh9uK","name":"proud-iris-sidewinder","lat":51.44632999,"lng":-0.13588038,"beac_rate":18,"ref_rss":-115.67,"w_N":1,"w_NE":6,"w_E":4,"w_SE":1,"w_S":7,"w_SW":3,"w_W":0,"w_NW":0},{"address":"11QVSY12bCgFzcDx7NcK4STLahVesMPyGBTHJcwmavSYwz2dzqo","name":"keen-shamrock-okapi","lat":51.51525227,"lng":-0.0727612,"beac_rate":11.5,"ref_rss":-113.92,"w_N":19,"w_NE":25,"w_E":11,"w_SE":12,"w_S":12,"w_SW":2,"w_W":2,"w_NW":15},{"address":"11YtVqfMWUV9HcBFycmmTWkLSpZZ8mEMw3sXZ7H8o6yFmaUge5J","name":"fierce-flint-walrus","lat":51.48759173,"lng":-0.03779737,"beac_rate":5.5,"ref_rss":-75.95,"w_N":11,"w_NE":7,"w_E":15,"w_SE":30,"w_S":87,"w_SW":13,"w_W":3,"w_NW":3},{"address":"112Yzd2rdnCf8nNyemr9fMSjSaUQP9pGd5qpma5XGdHHHE15nyfF","name":"howling-lavender-mockingbird","lat":51.54536055,"lng":0.0046725,"beac_rate":32.5,"ref_rss":-102.04,"w_N":8,"w_NE":2,"w_E":9,"w_SE":10,"w_S":18,"w_SW":14,"w_W":17,"w_NW":20},{"address":"1125W2ZTv171BRHWCjPe1qr2KcjYS2cWpSyUMctQpFx9nKAXHU3g","name":"cool-snowy-griffin","lat":51.5159758,"lng":-0.07113023,"beac_rate":3.5,"ref_rss":-102.78,"w_N":8,"w_NE":14,"w_E":14,"w_SE":6,"w_S":7,"w_SW":9,"w_W":10,"w_NW":14},{"address":"11fmbN9ytLCTCX3uNkoeG8aLksuDFzxMYhaLNbqNKSq7X8ySAzi","name":"flaky-chiffon-wren","lat":51.58760042,"lng":-0.14115171,"beac_rate":9,"ref_rss":-112.74,"w_N":28,"w_NE":7,"w_E":10,"w_SE":7,"w_S":1,"w_SW":1,"w_W":0,"w_NW":26},{"address":"11B22LV81qbei3UKCLP1hmE8bJDzXzP6N8AiZ6KZCgAKddrWxAN","name":"recumbent-licorice-bee","lat":51.47968485,"lng":-0.14134878,"beac_rate":2,"ref_rss":-101.99,"w_N":26,"w_NE":7,"w_E":8,"w_SE":6,"w_S":12,"w_SW":3,"w_W":6,"w_NW":9},{"address":"11AMBG25SgjpM5F4vqh9obMxDQwhUJNdxMXDV2QgbJE2eQ3buaY","name":"sweet-sangria-cormorant","lat":51.52038364,"lng":-0.26823871,"beac_rate":3,"ref_rss":-90.35,"w_N":22,"w_NE":9,"w_E":7,"w_SE":1,"w_S":2,"w_SW":2,"w_W":7,"w_NW":18},{"address":"11ygtR16EEYDMDsGd9ZJVRSNyMpVvx37HZ78RndJ5m8xyVpJn6c","name":"powerful-gingerbread-liger","lat":51.50261013,"lng":-0.09016118,"beac_rate":3.5,"ref_rss":-91.03,"w_N":16,"w_NE":11,"w_E":7,"w_SE":6,"w_S":5,"w_SW":13,"w_W":14,"w_NW":12},{"address":"1125XBX29EJZEnNtvcM97bd53x62yA8DphUydRw7sVZxcAoeVunY","name":"hidden-pear-armadillo","lat":51.44388154,"lng":-0.19041467,"beac_rate":10,"ref_rss":-90.84,"w_N":1,"w_NE":3,"w_E":3,"w_SE":0,"w_S":3,"w_SW":3,"w_W":1,"w_NW":2},{"address":"11BntTw6acxhiLAqGdjHqYCxBe3R89UNqKFohjM8AKwd9Qod7hq","name":"joyous-sangria-yeti","lat":51.44742056,"lng":-0.18424638,"beac_rate":15,"ref_rss":-63.78,"w_N":0,"w_NE":1,"w_E":2,"w_SE":3,"w_S":3,"w_SW":4,"w_W":2,"w_NW":2},{"address":"11NUwX9dsPwkscK7BBYyBEYNgNmjM7i4yncEdUh2pc1TKzjpL5b","name":"faithful-tortilla-snail","lat":51.47854728,"lng":-0.26680901,"beac_rate":15,"ref_rss":-116.17,"w_N":7,"w_NE":1,"w_E":2,"w_SE":4,"w_S":1,"w_SW":0,"w_W":1,"w_NW":6},{"address":"117JmGgVuSVFMQsunmY3hSyfc7mTqQoCxHK3x19Xnz2WN6enmin","name":"able-cedar-mammoth","lat":51.52208783,"lng":-0.154511,"beac_rate":4.5,"ref_rss":-112.24,"w_N":34,"w_NE":14,"w_E":7,"w_SE":0,"w_S":10,"w_SW":4,"w_W":0,"w_NW":7},{"address":"11pVPo4ZfekGy9DUmjjQvRFsMNJN2wxyt3JzVKuk4d7ncEMgsQD","name":"clean-fiery-mandrill","lat":51.56301309,"lng":-0.10551269,"beac_rate":3.5,"ref_rss":-79.72,"w_N":13,"w_NE":0,"w_E":1,"w_SE":3,"w_S":12,"w_SW":23,"w_W":17,"w_NW":35},{"address":"112dXuPcu6XxsJW3tyZQ4Pj1hEGtWWWYJ9JmZWPntkLoygsdqnAU","name":"digital-tartan-oyster","lat":51.50591808,"lng":-0.11112955,"beac_rate":20.5,"ref_rss":-112.17,"w_N":38,"w_NE":19,"w_E":7,"w_SE":7,"w_S":26,"w_SW":14,"w_W":23,"w_NW":23},{"address":"11A6hAjtKeVFGtsSKgk3TBA4qpraSTw1hKLGdWTpDRaSn1G5Eqd","name":"hollow-coral-ostrich","lat":51.48333035,"lng":-0.03636674,"beac_rate":5,"ref_rss":-93.69,"w_N":19,"w_NE":17,"w_E":10,"w_SE":12,"w_S":3,"w_SW":2,"w_W":2,"w_NW":5},{"address":"11QYTrQnfZjTSfR4WyETLmDB14yipZ2xjNNQBxhQyUGU6qMEB96","name":"able-mint-reindeer","lat":51.51235537,"lng":-0.24799499,"beac_rate":17.5,"ref_rss":-106.63,"w_N":17,"w_NE":2,"w_E":0,"w_SE":1,"w_S":1,"w_SW":6,"w_W":8,"w_NW":13},{"address":"112XpSF5iUJyPxfpz1s9xUeNAYXx3rK4zcyuP9wkw3hGicUhodUL","name":"careful-jade-bison","lat":51.4892698,"lng":-0.2758911,"beac_rate":1.5,"ref_rss":-116.43,"w_N":11,"w_NE":0,"w_E":2,"w_SE":1,"w_S":0,"w_SW":0,"w_W":2,"w_NW":2},{"address":"112Skj7sHwYZuqe87mFHsUktjmRv7MVHraT6fQ7jb2Qcj7yDbyx8","name":"square-ultraviolet-lemur","lat":51.42927444,"lng":0.03091876,"beac_rate":14.5,"ref_rss":-118.64,"w_N":6,"w_NE":7,"w_E":3,"w_SE":10,"w_S":24,"w_SW":0,"w_W":0,"w_NW":0},{"address":"112bZ83bw8B2fptZpm86J55GFj7QKesirUkNp5uBApa7qJbC3cUg","name":"elegant-mulberry-turtle","lat":51.51774651,"lng":-0.18618639,"beac_rate":8.5,"ref_rss":-107.01,"w_N":14,"w_NE":0,"w_E":3,"w_SE":7,"w_S":16,"w_SW":14,"w_W":8,"w_NW":7},{"address":"112LiV4vhzekeWmyLAbYjgG1uoXRFiHfbR1u1BwB833vbERJUT8P","name":"alert-beige-mockingbird","lat":51.58179005,"lng":-0.00715373,"beac_rate":1.5,"ref_rss":-97.55,"w_N":0,"w_NE":0,"w_E":0,"w_SE":0,"w_S":12,"w_SW":19,"w_W":5,"w_NW":11},{"address":"112j6F34KVP3ZpsaT5KAFDK1gSR4EsepEuteGJ7w89BoRRBEeQ7o","name":"keen-blue-badger","lat":51.48183887,"lng":-0.06188801,"beac_rate":4,"ref_rss":-92.64,"w_N":38,"w_NE":30,"w_E":23,"w_SE":10,"w_S":18,"w_SW":4,"w_W":2,"w_NW":5},{"address":"11GvHvdiMRhmjGkndWkkmTJEAQ3zFUguBNPyaDkMazjJHiKKLWT","name":"electric-magenta-robin","lat":51.46832344,"lng":-0.18988147,"beac_rate":7,"ref_rss":-110.55,"w_N":13,"w_NE":10,"w_E":2,"w_SE":10,"w_S":8,"w_SW":5,"w_W":14,"w_NW":5},{"address":"11eisYmRPFeJoqMg8miVNpnMa6oP73ttZNYTtnaPAuU6cD5QjQ","name":"glamorous-chocolate-seal","lat":51.57360877,"lng":0.02615551,"beac_rate":17,"ref_rss":-106.68,"w_N":0,"w_NE":0,"w_E":0,"w_SE":2,"w_S":3,"w_SW":2,"w_W":8,"w_NW":17},{"address":"11QncfVSMfvTPBTXxkS6pJgmpWVykP214BM41vduCfq7efpUYsS","name":"dancing-maroon-alligator","lat":51.51526725,"lng":-0.06533526,"beac_rate":5.5,"ref_rss":-109.48,"w_N":9,"w_NE":9,"w_E":7,"w_SE":6,"w_S":6,"w_SW":0,"w_W":8,"w_NW":14},{"address":"11s8s2Xp9dcirpEWXEUkM1DnQQRGiBnKuWZraXoNE5nk1NiRcqN","name":"overt-carmine-rattlesnake","lat":51.61139052,"lng":-0.13867684,"beac_rate":12,"ref_rss":-87.39,"w_N":10,"w_NE":1,"w_E":4,"w_SE":1,"w_S":2,"w_SW":6,"w_W":3,"w_NW":1},{"address":"112hn8bAGZbNt4RAPs54fFf6tv6DgACscCzPkhEm7JFfnu9URy4d","name":"flat-indigo-mouse","lat":51.46810415,"lng":-0.10052465,"beac_rate":20.5,"ref_rss":-84.69,"w_N":5,"w_NE":13,"w_E":4,"w_SE":7,"w_S":9,"w_SW":6,"w_W":3,"w_NW":3},{"address":"112UJZgas86MwKwL42uNFhWDPGzTBKRFE6o89pfDTJSZpjWfdM9K","name":"daring-shadow-tapir","lat":51.46589519,"lng":-0.12949656,"beac_rate":13.5,"ref_rss":-114.09,"w_N":21,"w_NE":13,"w_E":3,"w_SE":7,"w_S":5,"w_SW":2,"w_W":3,"w_NW":4},{"address":"112vE6AtXpiXkyVzrmYMUgUDRkdvNJGpCMYDJ3p3Bwu5LoGeVxaW","name":"howling-punch-snake","lat":51.56099456,"lng":-0.04533531,"beac_rate":17,"ref_rss":-111.71,"w_N":6,"w_NE":7,"w_E":3,"w_SE":6,"w_S":6,"w_SW":7,"w_W":2,"w_NW":17},{"address":"11NLVjciicPgDwCh9x2frH5KBRgMCm4ozrJreYMzRb231ERwaLi","name":"interesting-mauve-octopus","lat":51.44139257,"lng":-0.00355803,"beac_rate":13.5,"ref_rss":-111.77,"w_N":6,"w_NE":3,"w_E":1,"w_SE":4,"w_S":7,"w_SW":2,"w_W":1,"w_NW":2},{"address":"112LnNuAfJoR2Yv39JhH3foKX12QmqeSvwK6XYTqPFDj98K2S17J","name":"young-raisin-raccoon","lat":51.57737356,"lng":-0.1601254,"beac_rate":6.5,"ref_rss":-126.56,"w_N":3,"w_NE":0,"w_E":0,"w_SE":0,"w_S":0,"w_SW":0,"w_W":6,"w_NW":12},{"address":"11Es9jV6iv1PWhWqXYLaAECTfWfikg27ytJDBjbdKqTHp7XAcmz","name":"smooth-pineapple-perch","lat":51.51868243,"lng":-0.13459686,"beac_rate":4.5,"ref_rss":-97.48,"w_N":3,"w_NE":6,"w_E":3,"w_SE":3,"w_S":4,"w_SW":1,"w_W":3,"w_NW":6},{"address":"11f3UdgeN2XCYvqH9Womvt1D14i4SG85vqirbZy8Vo6hhLQcFxd","name":"helpful-tartan-sparrow","lat":51.45928317,"lng":0.03074706,"beac_rate":6.5,"ref_rss":-96.82,"w_N":12,"w_NE":9,"w_E":7,"w_SE":12,"w_S":33,"w_SW":4,"w_W":1,"w_NW":9},{"address":"11FhPNdjN64HGQxYuogimVHegRd22TuHcXnS4QNfX5fJpaL57Wd","name":"fast-graphite-ant","lat":51.5273807,"lng":-0.11840727,"beac_rate":1.5,"ref_rss":-89.49,"w_N":24,"w_NE":8,"w_E":2,"w_SE":3,"w_S":10,"w_SW":2,"w_W":3,"w_NW":7},{"address":"11c3MYrQuZZ4XZ9CPhs8vR3AMvVLRiMtsUVE675eps3zM4LvJSg","name":"kind-crimson-tarantula","lat":51.48858307,"lng":0.04624834,"beac_rate":5,"ref_rss":-86.88,"w_N":16,"w_NE":10,"w_E":11,"w_SE":16,"w_S":14,"w_SW":4,"w_W":5,"w_NW":1},{"address":"11uHZ3JrG2Lt8yFP9szM7TFCSQyVHaDYi62ygJnAaJ43wyswMMZ","name":"dapper-lipstick-swan","lat":51.49388403,"lng":-0.04686824,"beac_rate":13.5,"ref_rss":-122.42,"w_N":7,"w_NE":0,"w_E":3,"w_SE":2,"w_S":2,"w_SW":1,"w_W":1,"w_NW":4},{"address":"112E4dDKEk4fwTW9Zv81pUCySmQc1rXU2PSp1KvPFaaFbJ6fjFvF","name":"sticky-corduroy-seal","lat":51.51325974,"lng":-0.320109,"beac_rate":18,"ref_rss":-138.41,"w_N":3,"w_NE":0,"w_E":0,"w_SE":2,"w_S":0,"w_SW":1,"w_W":1,"w_NW":3},{"address":"11KsngbXERq94VWhcLxWniZMcYCwohJwFzAecSZCftcubXXLZRi","name":"high-ultraviolet-beetle","lat":51.52802847,"lng":-0.25077822,"beac_rate":4.5,"ref_rss":-92.76,"w_N":40,"w_NE":5,"w_E":3,"w_SE":2,"w_S":7,"w_SW":5,"w_W":7,"w_NW":28},{"address":"11EkPZXBe3g5Gqo5rVDqHkn3mY2S9RVuKu45JHA4YrArbaxfajw","name":"howling-honey-pangolin","lat":51.59978732,"lng":-0.15712312,"beac_rate":9.5,"ref_rss":-99.98,"w_N":11,"w_NE":6,"w_E":3,"w_SE":2,"w_S":1,"w_SW":1,"w_W":0,"w_NW":1},{"address":"112sEjBpVS5SJMihiRYVkW6nRZz8GtSAso6khmVm32NxVVDN8QkW","name":"mythical-obsidian-fly","lat":51.52263037,"lng":-0.26880271,"beac_rate":11,"ref_rss":-87.36,"w_N":22,"w_NE":11,"w_E":6,"w_SE":2,"w_S":1,"w_SW":2,"w_W":9,"w_NW":22},{"address":"11faaVjLo3dj9k3iu6t28y3xtpWHgM6PVCF7186Jj8awA6NBWny","name":"basic-topaz-raven","lat":51.51192049,"lng":0.05803522,"beac_rate":21,"ref_rss":-138.34,"w_N":2,"w_NE":0,"w_E":0,"w_SE":1,"w_S":7,"w_SW":2,"w_W":5,"w_NW":10},{"address":"11twHxVoBTmFts3RxcsEQ8g5Q65nK68t9cDXnD3j7T6k1ZmTjmK","name":"fierce-bronze-sparrow","lat":51.4921233,"lng":0.0721956,"beac_rate":17.5,"ref_rss":-109.59,"w_N":4,"w_NE":1,"w_E":2,"w_SE":1,"w_S":3,"w_SW":0,"w_W":2,"w_NW":4},{"address":"112dDJAf1wMMxo4j9XPx8ipAVxesar1VVzHmDsveMg7o4umFCcRE","name":"itchy-walnut-llama","lat":51.46604974,"lng":-0.23463982,"beac_rate":9.5,"ref_rss":-106.42,"w_N":4,"w_NE":3,"w_E":4,"w_SE":1,"w_S":3,"w_SW":1,"w_W":2,"w_NW":1},{"address":"11LZqspY9FBuHkgRX65xd1zQY7PNDgFpwhbJEuoZMUrxGXRYExR","name":"innocent-chiffon-parakeet","lat":51.51713075,"lng":-0.08370476,"beac_rate":3,"ref_rss":-112.57,"w_N":20,"w_NE":15,"w_E":8,"w_SE":15,"w_S":10,"w_SW":6,"w_W":8,"w_NW":9},{"address":"112eu3jSS4xAXFpEgy8BsH4ctAq3moc5x8N5gTN3ZvUMcyxyVnvR","name":"skinny-blood-flamingo","lat":51.45555581,"lng":0.03322833,"beac_rate":21,"ref_rss":-122.3,"w_N":7,"w_NE":7,"w_E":0,"w_SE":1,"w_S":0,"w_SW":1,"w_W":0,"w_NW":6},{"address":"119ALGFzt76P9f1YM4fyuzdaP49HY5HSjabb53Rv2DijrbNCwfD","name":"bald-tin-iguana","lat":51.6013051,"lng":-0.0931722,"beac_rate":1,"ref_rss":-134.65,"w_N":8,"w_NE":1,"w_E":0,"w_SE":2,"w_S":1,"w_SW":14,"w_W":9,"w_NW":7},{"address":"11mCA3dwha3f1Ace8mZdUuLq68M9XJVoQEGptsi1F55M1TZ1Uh2","name":"ancient-lace-weasel","lat":51.41599271,"lng":-0.1892815,"beac_rate":18,"ref_rss":-77.08,"w_N":4,"w_NE":2,"w_E":1,"w_SE":1,"w_S":2,"w_SW":1,"w_W":0,"w_NW":0},{"address":"11ybn4ykhCceNc2r4rmR5Yt5b5pMYUMM7mb6nBuug3WrUCrM2xK","name":"acrobatic-sangria-aardvark","lat":51.50754298,"lng":-0.17177073,"beac_rate":19.5,"ref_rss":-96.48,"w_N":28,"w_NE":34,"w_E":6,"w_SE":26,"w_S":38,"w_SW":23,"w_W":12,"w_NW":24},{"address":"11Qw5TNV3qCwGd46y32kzr8D1B14UNWaymFpYeRsbUgqYrJTRPN","name":"creamy-raspberry-mole","lat":51.54950398,"lng":-0.14297518,"beac_rate":6.5,"ref_rss":-175.38,"w_N":4,"w_NE":1,"w_E":2,"w_SE":1,"w_S":5,"w_SW":1,"w_W":2,"w_NW":1},{"address":"112cSayXTkVWkyGC9k64HqBhPdaRGH11fHwNmbRipEjjWWsfAjtD","name":"brisk-tan-ape","lat":51.62616387,"lng":-0.0211032,"beac_rate":6,"ref_rss":-82.87,"w_N":1,"w_NE":1,"w_E":0,"w_SE":0,"w_S":28,"w_SW":38,"w_W":10,"w_NW":1},{"address":"112Q6s7AmNt2gH674UytaoQj1Z8H5RDpyLz7wPKX3fcfybcz5r6z","name":"gigantic-brick-rook","lat":51.43024312,"lng":-0.17187728,"beac_rate":8.5,"ref_rss":-108.77,"w_N":6,"w_NE":1,"w_E":2,"w_SE":6,"w_S":7,"w_SW":3,"w_W":0,"w_NW":0},{"address":"11gCdcJqFx5hRo9M9dxM42PMFAdStejV47DWev9fFEjF1TK5VkJ","name":"rhythmic-eggplant-mole","lat":51.49472612,"lng":0.06875479,"beac_rate":4.5,"ref_rss":-99.26,"w_N":7,"w_NE":1,"w_E":8,"w_SE":30,"w_S":19,"w_SW":1,"w_W":1,"w_NW":6},{"address":"11XGKwp7tuEJtFyZAEizFtEfo1STDnovwxJfocMANKHsRxEXgy","name":"brave-cinnabar-dinosaur","lat":51.42026083,"lng":-0.08422598,"beac_rate":8.5,"ref_rss":-108.15,"w_N":8,"w_NE":7,"w_E":18,"w_SE":25,"w_S":12,"w_SW":0,"w_W":0,"w_NW":1},{"address":"11xxuuBAaZVXJiFCd87NhidhegmyJtdNMvXba6pJJjpJkBazjwf","name":"savory-berry-alligator","lat":51.50002666,"lng":0.07126254,"beac_rate":7.5,"ref_rss":-85.22,"w_N":9,"w_NE":1,"w_E":3,"w_SE":13,"w_S":39,"w_SW":11,"w_W":16,"w_NW":12},{"address":"11f2ySoBSgzFd2QkWctJN8ybD5W9BcRHUQ5VL51sAP7BFyHDp4M","name":"custom-fern-raccoon","lat":51.52177866,"lng":-0.07904331,"beac_rate":3,"ref_rss":-112.18,"w_N":14,"w_NE":11,"w_E":11,"w_SE":11,"w_S":7,"w_SW":0,"w_W":1,"w_NW":17},{"address":"1123ubdqhvX7r6C3TAtzGRWk7wiUXSdxvHKWjugDfcfQahice1jk","name":"festive-brick-capybara","lat":51.58690563,"lng":-0.03519822,"beac_rate":10,"ref_rss":-98.82,"w_N":3,"w_NE":4,"w_E":3,"w_SE":1,"w_S":7,"w_SW":2,"w_W":3,"w_NW":3},{"address":"112apJJZYGbytekfZq1mLbj3snBepZLscJmd2hiF2GRpPMQ94KnF","name":"pet-fossilized-beetle","lat":51.5118523,"lng":-0.13490172,"beac_rate":2.5,"ref_rss":-92.94,"w_N":25,"w_NE":11,"w_E":3,"w_SE":1,"w_S":16,"w_SW":7,"w_W":9,"w_NW":11},{"address":"11aftwMpLWYWRpjsy6EChdJAonMwsjjnFxc3zfZDd2gjh4owSpL","name":"sparkly-azure-crane","lat":51.498047,"lng":-0.04689538,"beac_rate":20,"ref_rss":-108.48,"w_N":35,"w_NE":21,"w_E":14,"w_SE":27,"w_S":16,"w_SW":14,"w_W":8,"w_NW":23},{"address":"11GgB4qnzncWWJrs677esgGw3w19B3EeFnjuVFx5uThhLRaqfja","name":"polished-eggshell-hippo","lat":51.58291155,"lng":-0.01948569,"beac_rate":6.5,"ref_rss":-118.96,"w_N":2,"w_NE":0,"w_E":1,"w_SE":3,"w_S":7,"w_SW":7,"w_W":4,"w_NW":14},{"address":"11EyUt21Gy9NmgTt5EWFys1DnJ2r9yN8iN1tpjTm3tgG88hzs4i","name":"lively-sapphire-terrier","lat":51.46079437,"lng":-0.18190738,"beac_rate":19,"ref_rss":-101.51,"w_N":0,"w_NE":1,"w_E":0,"w_SE":7,"w_S":8,"w_SW":2,"w_W":1,"w_NW":1},{"address":"11XUBjxGA94fyCdUpWKTSb8xsmcsAtuenCus7YD2VDA3SMLdQV8","name":"lively-walnut-jaguar","lat":51.46289035,"lng":-0.18914715,"beac_rate":16.5,"ref_rss":-98.79,"w_N":1,"w_NE":3,"w_E":9,"w_SE":7,"w_S":2,"w_SW":3,"w_W":1,"w_NW":2},{"address":"11fqUF8eHDhPVTXNSxuTZSCJhtjtGQQM25bptTvb1L4tjqGbKZf","name":"micro-cider-koala","lat":51.48854187,"lng":0.09369743,"beac_rate":7.5,"ref_rss":-63.67,"w_N":1,"w_NE":1,"w_E":0,"w_SE":2,"w_S":9,"w_SW":1,"w_W":1,"w_NW":2},{"address":"112hXaLwgUwhWFmvP1E61GvESZzXwEvVXxJBKKVEEHzSHy339uAy","name":"melodic-sepia-jellyfish","lat":51.48595721,"lng":-0.14028646,"beac_rate":2.5,"ref_rss":-110,"w_N":5,"w_NE":3,"w_E":3,"w_SE":1,"w_S":26,"w_SW":8,"w_W":7,"w_NW":4},{"address":"11228UKAp7tYMJj8A44AEsjWwzh33dEMzrA3dnFuymFmEYLV8aEe","name":"orbiting-opaque-nightingale","lat":51.61889473,"lng":-0.16833757,"beac_rate":13.5,"ref_rss":-85.69,"w_N":2,"w_NE":1,"w_E":0,"w_SE":0,"w_S":0,"w_SW":0,"w_W":1,"w_NW":3},{"address":"11JfGvNsEGtVPLJvUYvPmjGRzymdBmsGTdHTzR4MDGkMuwCCV7b","name":"savory-fuzzy-urchin","lat":51.52474545,"lng":-0.07210784,"beac_rate":7,"ref_rss":-114.07,"w_N":24,"w_NE":13,"w_E":10,"w_SE":3,"w_S":6,"w_SW":3,"w_W":8,"w_NW":28},{"address":"11csveJGCmiKTZ2AY2488RGAJk5nYsRvqvggCgyRnRA6ubTsWAe","name":"recumbent-ginger-zebra","lat":51.42947696,"lng":-0.13046464,"beac_rate":5,"ref_rss":-118.92,"w_N":0,"w_NE":4,"w_E":0,"w_SE":13,"w_S":8,"w_SW":1,"w_W":2,"w_NW":2},{"address":"11VCp7fgK6TFw3VdhqMgCJdatnB7vZoDVDqVuY6ZnBJq7zPdRwh","name":"nutty-crepe-cobra","lat":51.60510284,"lng":-0.1236992,"beac_rate":8,"ref_rss":-105.23,"w_N":3,"w_NE":2,"w_E":0,"w_SE":3,"w_S":1,"w_SW":3,"w_W":1,"w_NW":2},{"address":"117jLAgVgTXcg5KeuqWnx9XJD8M21MwszVJWR6LxtwLKZrj3s1Q","name":"obedient-bubblegum-hippo","lat":51.48471727,"lng":-0.22800765,"beac_rate":0.5,"ref_rss":-105.42,"w_N":8,"w_NE":3,"w_E":2,"w_SE":1,"w_S":5,"w_SW":3,"w_W":0,"w_NW":1},{"address":"11y6iJ9qgzpfxssHLHT2biLT3RKkcBRgbXBCc6tkc5DoQKq7W2d","name":"puny-mercurial-octopus","lat":51.4273009,"lng":-0.16305266,"beac_rate":20,"ref_rss":-149.71,"w_N":2,"w_NE":0,"w_E":0,"w_SE":1,"w_S":3,"w_SW":0,"w_W":0,"w_NW":0},{"address":"112vcUPvn2Sop2e7mMHT1J4s94PUuftqvQZjvRVyFCNjtPhpEzL9","name":"crazy-smoke-kitten","lat":51.55012385,"lng":-0.0179766,"beac_rate":4,"ref_rss":-89.52,"w_N":5,"w_NE":4,"w_E":7,"w_SE":9,"w_S":49,"w_SW":14,"w_W":1,"w_NW":11},{"address":"11nVZxCfoPvHsXCeKCGSsCsAmf8RWFYM7NC6KJoK6UPEJzQ7wW3","name":"oblong-iris-goat","lat":51.62906075,"lng":-0.00217196,"beac_rate":11,"ref_rss":-118.63,"w_N":0,"w_NE":0,"w_E":0,"w_SE":1,"w_S":10,"w_SW":50,"w_W":20,"w_NW":6},{"address":"11zBdCuWDEtPnthzWmnhyVVtuCeiS92f63zN4p1NiCDKrBmX59o","name":"handsome-porcelain-oyster","lat":51.57958001,"lng":-0.10852871,"beac_rate":16,"ref_rss":-108.62,"w_N":5,"w_NE":7,"w_E":2,"w_SE":6,"w_S":6,"w_SW":0,"w_W":0,"w_NW":1},{"address":"11DQv6fFAoozCFZp5wr7j1B3mbjsdUhRp3M9HvhguEuV5tTEjZc","name":"radiant-coffee-gazelle","lat":51.60702121,"lng":-0.11482265,"beac_rate":13,"ref_rss":-89.34,"w_N":4,"w_NE":2,"w_E":1,"w_SE":0,"w_S":1,"w_SW":0,"w_W":0,"w_NW":1},{"address":"112VwU72nB6qQmUJUfgg5pXWczehUf4t6BrL63xXQqvHmfsAXvZ1","name":"acidic-mocha-whale","lat":51.52681888,"lng":-0.05747335,"beac_rate":4,"ref_rss":-107.9,"w_N":7,"w_NE":12,"w_E":4,"w_SE":6,"w_S":15,"w_SW":7,"w_W":4,"w_NW":7},{"address":"11McKu5u6w7bCghKiiBQNXzmTfYvHyHLnSmiC2qL2uXxvYtEcCd","name":"shiny-coffee-starling","lat":51.53118766,"lng":0.01039449,"beac_rate":9,"ref_rss":-96.5,"w_N":13,"w_NE":3,"w_E":5,"w_SE":12,"w_S":19,"w_SW":18,"w_W":13,"w_NW":20},{"address":"11U4cYcX6mpmWkQiMtXi3TT7ENbf97GpAgc6E1uXdsAp2ESHB8S","name":"silly-snowy-rabbit","lat":51.50966029,"lng":0.01967908,"beac_rate":14.5,"ref_rss":-97.7,"w_N":8,"w_NE":9,"w_E":11,"w_SE":16,"w_S":10,"w_SW":8,"w_W":4,"w_NW":10},{"address":"11vWHaBD39GhquuBhVvm3DyXaJgkyFcR7UYoSqSdZJCQS6SKcCm","name":"little-cobalt-mole","lat":51.57228107,"lng":-0.21513053,"beac_rate":4,"ref_rss":-92.7,"w_N":1,"w_NE":1,"w_E":4,"w_SE":5,"w_S":7,"w_SW":2,"w_W":2,"w_NW":8},{"address":"11JWJzD42veYNWZstwZ5vuJ1hNvp1w8kcViLeyQD9nX399a53pz","name":"plain-olive-porpoise","lat":51.44616686,"lng":-0.05879771,"beac_rate":0.5,"ref_rss":-105.78,"w_N":1,"w_NE":2,"w_E":6,"w_SE":3,"w_S":10,"w_SW":0,"w_W":0,"w_NW":0},{"address":"11r1uqaP87mvEgeQyKqUq8EZZSEERUfKoi2DyifQay8K27mcK3n","name":"creamy-sky-puppy","lat":51.47227281,"lng":-0.15756123,"beac_rate":9,"ref_rss":-122.6,"w_N":1,"w_NE":2,"w_E":0,"w_SE":2,"w_S":2,"w_SW":1,"w_W":2,"w_NW":0},{"address":"11BHopWCaRdVKQa1GhWf6WKpNcPBN3da9ot77dNeLyPY69wGR3H","name":"hot-teal-starfish","lat":51.56162874,"lng":-0.00490277,"beac_rate":2,"ref_rss":-93.35,"w_N":1,"w_NE":0,"w_E":2,"w_SE":5,"w_S":19,"w_SW":17,"w_W":6,"w_NW":17},{"address":"11qr3XHQUr8Jy5VcR69DCe5MsGfUdkpor4h55EWSw8UE8qwKccQ","name":"urban-clay-millipede","lat":51.44393799,"lng":-0.20757782,"beac_rate":11.5,"ref_rss":-113.09,"w_N":20,"w_NE":10,"w_E":3,"w_SE":6,"w_S":2,"w_SW":0,"w_W":1,"w_NW":5},{"address":"11DRZAn7XF6FQp9FuYdERCdVEkXpN5R3kshgfGPwVVkqqHg1hBb","name":"stale-parchment-lion","lat":51.48997412,"lng":-0.11432215,"beac_rate":6.5,"ref_rss":-107.48,"w_N":35,"w_NE":15,"w_E":8,"w_SE":9,"w_S":22,"w_SW":13,"w_W":13,"w_NW":18},{"address":"11E7LZSFkjyhRuJYUQNcsiacdHouiJsVHNiGx6pRYQzNBk8qRUd","name":"upbeat-marmalade-cobra","lat":51.45232885,"lng":-0.11980143,"beac_rate":19.5,"ref_rss":-117.01,"w_N":4,"w_NE":16,"w_E":5,"w_SE":5,"w_S":5,"w_SW":0,"w_W":1,"w_NW":1},{"address":"112hz6KezFZqxsQjNbTaM58LrfcmvWR7KqWNbrXQxbD4xabyQnFm","name":"damaged-wintergreen-haddock","lat":51.49328393,"lng":-0.13281589,"beac_rate":15,"ref_rss":-100.33,"w_N":46,"w_NE":6,"w_E":2,"w_SE":9,"w_S":46,"w_SW":25,"w_W":23,"w_NW":27},{"address":"11nHhwHkjU4qGU5ZKPLHAneaiehgL6LRhzG9aSE1SQnZcsGmKEK","name":"salty-dijon-raccoon","lat":51.46903336,"lng":-0.15623199,"beac_rate":19,"ref_rss":-107.11,"w_N":2,"w_NE":8,"w_E":1,"w_SE":4,"w_S":2,"w_SW":2,"w_W":0,"w_NW":0},{"address":"118DZrLoEog3UdeHuyiUHBXPKENi4EU9w6rSeYiv5j5ZL2jULdd","name":"tart-vinyl-shetland","lat":51.47497145,"lng":-0.08537159,"beac_rate":6,"ref_rss":-93.5,"w_N":19,"w_NE":32,"w_E":30,"w_SE":20,"w_S":15,"w_SW":6,"w_W":2,"w_NW":3},{"address":"11EHLrXEBuWqipAVFUcbBupWGZm55t3xxiLsKGrCTXmXgKJSevg","name":"odd-cherry-mole","lat":51.61254239,"lng":-0.0609925,"beac_rate":15,"ref_rss":-113.68,"w_N":8,"w_NE":1,"w_E":1,"w_SE":2,"w_S":4,"w_SW":5,"w_W":9,"w_NW":15},{"address":"112J7dSpYq9ce6F215CtMfWbBvWNGUYDB1WQDJZfXmVnkr3WEKqy","name":"tame-juniper-shrimp","lat":51.48592375,"lng":-0.23341165,"beac_rate":5,"ref_rss":-98.8,"w_N":45,"w_NE":11,"w_E":1,"w_SE":8,"w_S":6,"w_SW":4,"w_W":7,"w_NW":15},{"address":"11xxDsmCPSoMVG82Ra1ZkjY4z2QZyMpJN2bco2zBrpxa4rNT73e","name":"special-oily-stallion","lat":51.53504808,"lng":0.0121113,"beac_rate":10.5,"ref_rss":-103.68,"w_N":10,"w_NE":1,"w_E":1,"w_SE":12,"w_S":18,"w_SW":17,"w_W":18,"w_NW":29},{"address":"112F8DM6x9SaSgAVU161ZNhapiVgs8CPaUPoGJpmYAcUjMTSwFvZ","name":"helpful-coconut-tarantula","lat":51.48088778,"lng":-0.14922196,"beac_rate":4.5,"ref_rss":-77.1,"w_N":17,"w_NE":6,"w_E":1,"w_SE":14,"w_S":23,"w_SW":9,"w_W":5,"w_NW":13},{"address":"11Sm81EgzyZEfhBK5WA4AC2JyaxHPdnwTAUa19ik7bnxT2Ctbo1","name":"late-daisy-wolverine","lat":51.51231852,"lng":0.03915018,"beac_rate":10,"ref_rss":-115.45,"w_N":0,"w_NE":0,"w_E":0,"w_SE":3,"w_S":10,"w_SW":1,"w_W":1,"w_NW":3},{"address":"11jfRvGPiiujq33UwCYT7Tmm2GoTkZCtpf1RkyVrX9z9mBeY7tE","name":"hot-alabaster-pheasant","lat":51.5539035,"lng":-0.07412829,"beac_rate":8,"ref_rss":-111.63,"w_N":16,"w_NE":7,"w_E":2,"w_SE":10,"w_S":24,"w_SW":18,"w_W":12,"w_NW":19},{"address":"118J28LDuKgz7JxP53JS6YubRNYvUimJdE4FPZzc1rPW4D8XBqp","name":"upbeat-dijon-wombat","lat":51.54096791,"lng":-0.10400029,"beac_rate":10,"ref_rss":-114.73,"w_N":26,"w_NE":5,"w_E":7,"w_SE":8,"w_S":6,"w_SW":3,"w_W":5,"w_NW":21},{"address":"11WHf6krMSnAmEo7d2Kc6F8AufmHkJciMbH8UFPZffF733UN9Xi","name":"flaky-grape-turkey","lat":51.44816519,"lng":-0.2029149,"beac_rate":9,"ref_rss":-93.66,"w_N":52,"w_NE":33,"w_E":14,"w_SE":21,"w_S":4,"w_SW":1,"w_W":5,"w_NW":7},{"address":"112cgpteTvVfcueRcAanJXdYWNyMk7DTPcGfPXb5uVQEnqWrFnQo","name":"puny-orchid-wallaby","lat":51.48248823,"lng":-0.13342302,"beac_rate":17.5,"ref_rss":-92.48,"w_N":16,"w_NE":8,"w_E":5,"w_SE":7,"w_S":12,"w_SW":5,"w_W":5,"w_NW":7},{"address":"11yhWkVxPmr9uTLopeoFT8VaGqxjCob7Ex3yCHv9XsavrjPGXnh","name":"huge-pistachio-scallop","lat":51.58769568,"lng":-0.11073532,"beac_rate":13,"ref_rss":-111.08,"w_N":42,"w_NE":11,"w_E":3,"w_SE":8,"w_S":7,"w_SW":19,"w_W":12,"w_NW":99},{"address":"112XUgDQJViveFiEaCqj9uFuCBwRZJ84QxzLBJGZR5SRTk25Xo2R","name":"eager-silver-shark","lat":51.49646004,"lng":-0.06268928,"beac_rate":14.5,"ref_rss":-108.34,"w_N":9,"w_NE":7,"w_E":10,"w_SE":7,"w_S":11,"w_SW":7,"w_W":2,"w_NW":1},{"address":"11FKQExTL9psPFgM22dQeER51cim9Ppdk4Re2jZp3pFgm3bZQxE","name":"zesty-ivory-mouse","lat":51.47362945,"lng":-0.17138121,"beac_rate":18.5,"ref_rss":-114.97,"w_N":3,"w_NE":4,"w_E":2,"w_SE":6,"w_S":9,"w_SW":2,"w_W":2,"w_NW":3},{"address":"119SRP9t3otuxvrp95mJaPmaZf9N3GtW63BQuSQTYZRHLUX87Dh","name":"rare-azure-rhino","lat":51.50664245,"lng":-0.25319551,"beac_rate":7.5,"ref_rss":-109.65,"w_N":13,"w_NE":8,"w_E":1,"w_SE":6,"w_S":6,"w_SW":3,"w_W":6,"w_NW":11},{"address":"11CkHzyPQX1Yi2Pu7PGjtFn5qUHJtirSSZu6jQpygAij3F4vuuB","name":"clumsy-carob-shell","lat":51.53648241,"lng":0.06353465,"beac_rate":13,"ref_rss":-103.04,"w_N":0,"w_NE":0,"w_E":3,"w_SE":5,"w_S":12,"w_SW":10,"w_W":13,"w_NW":8},{"address":"11Rk8isr89pSuMRgyAXysMX3SfizQZmKSANFEZyJLCMxxZ95qrW","name":"bright-tweed-cheetah","lat":51.54772087,"lng":0.00428238,"beac_rate":4.5,"ref_rss":-88.26,"w_N":10,"w_NE":1,"w_E":5,"w_SE":9,"w_S":19,"w_SW":15,"w_W":21,"w_NW":25},{"address":"117oTFtUf8EvFXkNb8bhpESW7FotE9xsGZzBppbGJmK9tXjf3AA","name":"proper-lead-capybara","lat":51.48099247,"lng":-0.18174409,"beac_rate":11,"ref_rss":-107.36,"w_N":11,"w_NE":5,"w_E":6,"w_SE":13,"w_S":18,"w_SW":12,"w_W":2,"w_NW":6},{"address":"1125Qfhie65WsjcHwDdamQnUcpVHrFiymo4VtegoseFerqZwH8HK","name":"formal-brown-squid","lat":51.58924881,"lng":-0.03715933,"beac_rate":4,"ref_rss":-108.55,"w_N":5,"w_NE":6,"w_E":1,"w_SE":1,"w_S":9,"w_SW":1,"w_W":3,"w_NW":8},{"address":"11nJs5nzGCo4pEPFMZaXuc6GKo3EJzaGKSnwRrDRtAkGR7Ys4f","name":"tricky-marmalade-pony","lat":51.50923542,"lng":-0.03275521,"beac_rate":4,"ref_rss":-113.56,"w_N":1,"w_NE":1,"w_E":4,"w_SE":5,"w_S":10,"w_SW":4,"w_W":1,"w_NW":4},{"address":"112ka9nkRGqjLgSFY3wmjU13k2z8h1ChrUxjSWf9ERgY5twQEujF","name":"acidic-flint-rook","lat":51.56641272,"lng":-0.0510105,"beac_rate":5.5,"ref_rss":-48.59,"w_N":9,"w_NE":9,"w_E":6,"w_SE":3,"w_S":6,"w_SW":5,"w_W":2,"w_NW":8},{"address":"112649QnSwWJP7hoEGGKv1hBTkF2Pd7fEJ3mjSoY6qsEsEafgLCL","name":"creamy-burlap-cricket","lat":51.46579751,"lng":-0.01283345,"beac_rate":5.5,"ref_rss":-112.39,"w_N":10,"w_NE":2,"w_E":4,"w_SE":11,"w_S":19,"w_SW":5,"w_W":3,"w_NW":2},{"address":"116UHfZnw3erBFRmu4YToW4PbDZ8d1mPVq1RWjeNwJUvEfKPSai","name":"dry-saffron-sealion","lat":51.43167524,"lng":0.04691064,"beac_rate":5,"ref_rss":-89.66,"w_N":2,"w_NE":5,"w_E":15,"w_SE":62,"w_S":28,"w_SW":0,"w_W":0,"w_NW":0},{"address":"11mSuv9UbQHGZZhSbUwqpybuq5kho9okdnutquAowUk3jJmp8hc","name":"custom-quartz-salmon","lat":51.54079474,"lng":-0.00791665,"beac_rate":3,"ref_rss":-94.24,"w_N":7,"w_NE":0,"w_E":3,"w_SE":2,"w_S":44,"w_SW":31,"w_W":10,"w_NW":16},{"address":"11WGBSLbtoB3rMLL2RXsRCC3AkpjJPA5bg7f8B3nNCv5Qn5kS5D","name":"young-merlot-scallop","lat":51.53195474,"lng":-0.08237154,"beac_rate":14,"ref_rss":-112.06,"w_N":10,"w_NE":14,"w_E":3,"w_SE":2,"w_S":5,"w_SW":4,"w_W":4,"w_NW":4},{"address":"11ECnMK2E6DAyuBuPvTwcFRCLatxZqK2VqXAF9LvAjAjxM2TtHd","name":"attractive-amethyst-wren","lat":51.47174516,"lng":-0.01405775,"beac_rate":3,"ref_rss":-104.45,"w_N":10,"w_NE":8,"w_E":17,"w_SE":22,"w_S":20,"w_SW":4,"w_W":5,"w_NW":3},{"address":"11fGhebpujkgh1Azod8EWdyDdKTayxycwYoeXTTX3b6HqGcnznc","name":"damaged-sangria-vulture","lat":51.54416081,"lng":0.02491437,"beac_rate":7,"ref_rss":-111.36,"w_N":5,"w_NE":2,"w_E":0,"w_SE":2,"w_S":10,"w_SW":5,"w_W":4,"w_NW":10},{"address":"11DryhAGWbrGa6X8zRYLfmgJJC57WFj6ogujXRjcmue57DNbeRw","name":"digital-purple-dove","lat":51.6207318,"lng":-0.17658151,"beac_rate":9.5,"ref_rss":-120.66,"w_N":14,"w_NE":1,"w_E":0,"w_SE":0,"w_S":0,"w_SW":2,"w_W":0,"w_NW":5},{"address":"1127uxwhuqxFXCRQF1nxJn9wQ21JzJ2iJjQn1hkGXeicfYbNQNH8","name":"swift-cotton-porcupine","lat":51.50254416,"lng":0.08652578,"beac_rate":27.5,"ref_rss":-100.35,"w_N":1,"w_NE":0,"w_E":0,"w_SE":14,"w_S":51,"w_SW":12,"w_W":7,"w_NW":5},{"address":"112VhaQf69cka8vafkFRmsAJUskhoP6s7AQLE1jJJdyoFY3QiU59","name":"virtual-basil-snail","lat":51.48382718,"lng":-0.03258728,"beac_rate":19.5,"ref_rss":-99.44,"w_N":11,"w_NE":11,"w_E":3,"w_SE":7,"w_S":7,"w_SW":3,"w_W":2,"w_NW":2},{"address":"112ZPuYtqmvW8QtvNJMjD6GvVfPaC4dUcXn4VgoWafTxQ8vhHMii","name":"immense-macaroon-finch","lat":51.47145828,"lng":-0.08412227,"beac_rate":15.5,"ref_rss":-106.97,"w_N":6,"w_NE":4,"w_E":6,"w_SE":9,"w_S":13,"w_SW":1,"w_W":0,"w_NW":1},{"address":"11N16JdRngyNiNcFQU6144uLq6dNVTRy3AojBFnNpJ4L1eakEQ5","name":"slow-carbon-lemur","lat":51.47764451,"lng":-0.0008582,"beac_rate":4.5,"ref_rss":-109.05,"w_N":18,"w_NE":12,"w_E":15,"w_SE":10,"w_S":16,"w_SW":1,"w_W":0,"w_NW":4},{"address":"11255ZcMTGDYngLw1vQZEGb3knUav6JfW1LJusHxWWAoxruo6j2o","name":"great-bamboo-guppy","lat":51.52385191,"lng":0.00472494,"beac_rate":8.5,"ref_rss":-100.22,"w_N":8,"w_NE":7,"w_E":8,"w_SE":18,"w_S":31,"w_SW":21,"w_W":11,"w_NW":21}]