[{"id":0,"name":"able-lemon-sidewinder","status":"online","latitude":"51.465741241920576","longitude":"-0.17222910219117651","performance2":"0.0740019303497047","performance1":"0.8877879496231316"},{"id":1,"name":"able-orange-cobra","status":"online","latitude":"51.48977490833757","longitude":"-0.14080590154797895","performance2":"0.14237297311831354","performance1":"0.17477142677451712"},{"id":2,"name":"abundant-malachite-mammoth","status":"online","latitude":"51.54621569696764","longitude":"-0.05774071344378642","performance2":"0.6523201521712818","performance1":"0.01112239430158215"},{"id":3,"name":"abundant-rainbow-oyster","status":"online","latitude":"51.51851535199226","longitude":"-0.16968875167264014","performance2":"0.984732358139325","performance1":"-0.9697954976249201"},{"id":4,"name":"acidic-plum-rook","status":"online","latitude":"51.518472834239255","longitude":"-0.16943976113466133","performance2":"0.9357137176943701","performance1":"-1.7074281425281541"},{"id":5,"name":"active-coconut-crab","status":"offline","latitude":"51.52308992043768","longitude":"-0.261376417925736","performance2":"0.49377344882705","performance1":"-0.3334879522777044"},{"id":6,"name":"alert-garnet-pony","status":"offline","latitude":"51.52410052506155","longitude":"-0.3028309066715545","performance2":"0.08480272973557967","performance1":"1.276301540695702"},{"id":7,"name":"ambitious-daffodil-loris","status":"online","latitude":"51.53091278909253","longitude":"-0.20201728026196286","performance2":"0.1093572895920829","performance1":"1.5584616767438741"},{"id":8,"name":"ambitious-tan-panther","status":"offline","latitude":"51.546424614295006","longitude":"0.059910848191219175","performance2":"0.2374403490435607","performance1":"-0.28430665916866327"},{"id":9,"name":"amusing-arctic-tardigrade","status":"offline","latitude":"51.540013201043045","longitude":"-0.17972156308773415","performance2":"0.5788146779313953","performance1":"-0.34509831038998884"},{"id":10,"name":"basic-tweed-gibbon","status":"online","latitude":"51.58765605539096","longitude":"-0.043725408800262","performance2":"0.8733766538327498","performance1":"-0.9708348182294652"},{"id":11,"name":"beautiful-orange-turkey","status":"online","latitude":"51.518472834239255","longitude":"-0.16943976113466133","performance2":"0.8543257308533515","performance1":"0.36410708895958993"},{"id":12,"name":"big-foggy-seagull","status":"online","latitude":"51.457141748661385","longitude":"-0.04837404325024045","performance2":"0.45278781099033394","performance1":"1.1876431300031252"},{"id":13,"name":"big-indigo-nightingale","status":"online","latitude":"51.50593733366869","longitude":"-0.21533357948005266","performance2":"0.09675250475664865","performance1":"1.7576488957358842"},{"id":14,"name":"big-leather-goblin","status":"offline","latitude":"51.5348685554841","longitude":"0.061265528114802764","performance2":"0.9711836388864317","performance1":"2.412152072100289"},{"id":15,"name":"bitter-glossy-grasshopper","status":"offline","latitude":"51.42113714014197","longitude":"-0.09100586008813387","performance2":"0.33537996746152576","performance1":"-0.19324647733309497"},{"id":16,"name":"bitter-misty-koala","status":"online","latitude":"51.51851535199226","longitude":"-0.16968875167264014","performance2":"0.09419986076939868","performance1":"-0.2050910925072889"},{"id":17,"name":"bitter-tortilla-squirrel","status":"offline","latitude":"51.59099926763953","longitude":"-0.030679980127527876","performance2":"0.5508938509079786","performance1":"-0.6815168858316543"},{"id":18,"name":"blurry-tin-goat","status":"online","latitude":"51.585834421915074","longitude":"-0.25267723431165456","performance2":"0.1716315178429153","performance1":"0.43563464535018115"},{"id":19,"name":"boxy-berry-moose","status":"offline","latitude":"51.522278462092245","longitude":"-0.0811200916508726","performance2":"0.17061856532205566","performance1":"1.2323332689382076"},{"id":20,"name":"boxy-goldenrod-sealion","status":"online","latitude":"51.518472834239255","longitude":"-0.16943976113466133","performance2":"0.7437242357638415","performance1":"1.3573958760790772"},{"id":21,"name":"boxy-grape-mantaray","status":"online","latitude":"51.51851535199226","longitude":"-0.16968875167264014","performance2":"0.8719557474297143","performance1":"-1.9323471655994384"},{"id":22,"name":"boxy-pebble-squirrel","status":"offline","latitude":"51.58899007971817","longitude":"-0.0032100044910819115","performance2":"0.9651166795935953","performance1":"0.7026673342220653"},{"id":23,"name":"breezy-cloud-camel","status":"online","latitude":"51.51851535199226","longitude":"-0.16968875167264014","performance2":"0.07249781733699223","performance1":"-0.9142304102706192"},{"id":24,"name":"breezy-tartan-alligator","status":"online","latitude":"51.49991204927343","longitude":"-0.3048126128157692","performance2":"0.4505948568916638","performance1":"-0.22684328541317028"},{"id":25,"name":"bright-foggy-shell","status":"online","latitude":"51.51851535199226","longitude":"-0.16968875167264014","performance2":"0.7678691769012373","performance1":"-0.20638708085947943"},{"id":26,"name":"brilliant-leather-koala","status":"online","latitude":"51.56137205178351","longitude":"-0.25632697843760355","performance2":"0.19844790664578782","performance1":"-0.23578429996102243"},{"id":27,"name":"brilliant-pear-troll","status":"online","latitude":"51.51851535199226","longitude":"-0.16968875167264014","performance2":"0.6719055275619746","performance1":"-0.9443988679507681"},{"id":28,"name":"brilliant-syrup-anteater","status":"online","latitude":"51.54239851482651","longitude":"-0.18193855873648768","performance2":"0.32771979980124266","performance1":"-2.0858265332547656"},{"id":29,"name":"broad-cherry-wombat","status":"online","latitude":"51.51480100415469","longitude":"0.00899563708646778","performance2":"0.7830021732657333","performance1":"0.5794477991088274"},{"id":30,"name":"broad-slate-panther","status":"online","latitude":"51.51851535199226","longitude":"-0.16968875167264014","performance2":"0.9990127209277353","performance1":"-0.24658637879782527"},{"id":31,"name":"bubbly-daisy-rat","status":"online","latitude":"51.491625881879166","longitude":"0.05021060089582878","performance2":"0.6792551965562242","performance1":"-1.9873350290116414"},{"id":32,"name":"bumpy-wooden-toad","status":"offline","latitude":"51.5454512025635","longitude":"0.048966416034047215","performance2":"0.34621460276982674","performance1":"-1.9494791128067042"},{"id":33,"name":"calm-canvas-goldfish","status":"online","latitude":"51.54065996178245","longitude":"-0.19023488078793294","performance2":"0.9795730549323316","performance1":"0.23858655523783792"},{"id":34,"name":"calm-coal-lemur","status":"online","latitude":"51.51851535199226","longitude":"-0.16968875167264014","performance2":"0.045008571191751945","performance1":"1.6228074584846122"},{"id":35,"name":"calm-sandstone-caterpillar","status":"online","latitude":"51.51851535199226","longitude":"-0.16968875167264014","performance2":"0.03945885850035713","performance1":"-2.1494750764174704"},{"id":36,"name":"careful-canvas-rhino","status":"online","latitude":"51.52441704498888","longitude":"-0.2009194602470205","performance2":"0.8208530100906617","performance1":"0.008538456319638062"},{"id":37,"name":"cheerful-merlot-cormorant","status":"online","latitude":"51.44367163643186","longitude":"-0.06598342735272596","performance2":"0.36977314919277093","performance1":"-2.2129369626658746"},{"id":38,"name":"cheery-lilac-orca","status":"online","latitude":"51.570796283814964","longitude":"-0.14679638503326134","performance2":"0.8864976216518328","performance1":"1.7787991245313073"},{"id":39,"name":"cheesy-opaque-vulture","status":"online","latitude":"51.43990022823485","longitude":"-0.11006049215579182","performance2":"0.4277075137737033","performance1":"0.08835718311591698"},{"id":40,"name":"chilly-graphite-panther","status":"online","latitude":"51.51851535199226","longitude":"-0.16968875167264014","performance2":"0.48321627102904074","performance1":"-1.2606000822099508"},{"id":41,"name":"chilly-topaz-chicken","status":"online","latitude":"51.51851535199226","longitude":"-0.16968875167264014","performance2":"0.2062364665816574","performance1":"0.5794732760579532"},{"id":42,"name":"clean-sable-wolf","status":"offline","latitude":"51.542972558513796","longitude":"0.062469146239948974","performance2":"0.7759914662752665","performance1":"0.4159587794618417"},{"id":43,"name":"clever-rosewood-worm","status":"online","latitude":"51.51851535199226","longitude":"-0.16968875167264014","performance2":"0.07878336838400779","performance1":"-1.1354447305607238"},{"id":44,"name":"clumsy-hazel-elk","status":"offline","latitude":"51.5335710442295","longitude":"0.043075199803841335","performance2":"0.2639183790448708","performance1":"0.6549302377248376"},{"id":45,"name":"clumsy-olive-gibbon","status":"online","latitude":"51.459068347976974","longitude":"0.05356426164818366","performance2":"0.1153620188356691","performance1":"-1.0036583019823098"},{"id":46,"name":"colossal-bubblegum-bison","status":"online","latitude":"51.51851535199226","longitude":"-0.16968875167264014","performance2":"0.7941429058200875","performance1":"0.23669534988198118"},{"id":47,"name":"colossal-maroon-giraffe","status":"online","latitude":"51.513736054492156","longitude":"-0.21060512843289725","performance2":"0.936083931076569","performance1":"-0.017984785803739183"},{"id":48,"name":"colossal-porcelain-salmon","status":"online","latitude":"51.51851535199226","longitude":"-0.16968875167264014","performance2":"0.234428806342854","performance1":"-0.03689626766716377"},{"id":49,"name":"crazy-citron-turkey","status":"online","latitude":"51.51851535199226","longitude":"-0.16968875167264014","performance2":"0.9523879963350351","performance1":"-0.026645968720892903"},{"id":50,"name":"crazy-taffy-starfish","status":"online","latitude":"51.50238123309097","longitude":"-0.07629384504180857","performance2":"0.5942378008561068","performance1":"-0.6966826678954114"},{"id":51,"name":"creamy-grape-cricket","status":"online","latitude":"51.530402834518306","longitude":"-0.21753860249337653","performance2":"0.7531175803295753","performance1":"-0.32430150238765093"},{"id":52,"name":"creamy-pineapple-raccoon","status":"online","latitude":"51.51851535199226","longitude":"-0.16968875167264014","performance2":"0.5272099652527772","performance1":"0.6837106585740187"},{"id":53,"name":"creamy-vanilla-lion","status":"online","latitude":"54.938126968391956","longitude":"-7.2203296522306575","performance2":"0.6428738156354338","performance1":"0.8340857263652411"},{"id":54,"name":"cuddly-menthol-pike","status":"online","latitude":"51.51271148161154","longitude":"-0.12567942451521605","performance2":"0.779672656808989","performance1":"-0.024027349738332912"},{"id":55,"name":"curved-concrete-shark","status":"online","latitude":"51.4118617192501","longitude":"-0.07040826838296091","performance2":"0.5255968705296149","performance1":"-0.6508634539149294"},{"id":56,"name":"custom-bronze-elk","status":"online","latitude":"51.52773345879136","longitude":"-0.13889591623910585","performance2":"0.28448778102052574","performance1":"2.1358166594460966"},{"id":57,"name":"custom-cinnamon-frog","status":"online","latitude":"51.514692385337774","longitude":"-0.2179036304948997","performance2":"0.613088473872749","performance1":"-1.1246274391926172"},{"id":58,"name":"damaged-rusty-octopus","status":"online","latitude":"51.54177741362696","longitude":"-0.26334556481174337","performance2":"0.8808118935421161","performance1":"-1.0903051845985594"},{"id":59,"name":"damaged-tweed-poodle","status":"offline","latitude":"51.43081845778493","longitude":"-0.10981165491902836","performance2":"0.7357619717083834","performance1":"0.9318298409726038"},{"id":60,"name":"damp-green-rooster","status":"online","latitude":"51.60675683439813","longitude":"-0.2366681177464308","performance2":"0.9614841159638229","performance1":"0.43131935550447575"},{"id":61,"name":"damp-pear-copperhead","status":"offline","latitude":"51.554899070356996","longitude":"0.057311448085308865","performance2":"0.3282368107085315","performance1":"-1.9353862404369981"},{"id":62,"name":"dancing-golden-finch","status":"online","latitude":"51.52757803829791","longitude":"-0.19927616171589765","performance2":"0.04459947639921946","performance1":"-1.0464691307004421"},{"id":63,"name":"dancing-powder-wombat","status":"online","latitude":"51.51851535199226","longitude":"-0.16968875167264014","performance2":"0.22126544909909673","performance1":"-0.0005268377655332526"},{"id":64,"name":"dandy-cloud-rook","status":"online","latitude":"51.55203355212003","longitude":"-0.16196811188898266","performance2":"0.8358463716065766","performance1":"0.372715822687685"},{"id":65,"name":"dapper-rosewood-mole","status":"online","latitude":"51.49443705465146","longitude":"-0.31059498598880303","performance2":"0.2686096153387112","performance1":"1.6337011738729101"},{"id":66,"name":"dapper-sage-pig","status":"online","latitude":"51.51851535199226","longitude":"-0.16968875167264014","performance2":"0.05421380561895017","performance1":"0.04667361021220262"},{"id":67,"name":"daring-mulberry-puma","status":"online","latitude":"51.541951561047966","longitude":"-0.13318125661568198","performance2":"0.23228294262581972","performance1":"-0.501732902468977"},{"id":68,"name":"daring-taupe-trout","status":"online","latitude":"51.51851535199226","longitude":"-0.16968875167264014","performance2":"0.3425714451710178","performance1":"-0.5953852331159062"},{"id":69,"name":"dazzling-basil-poodle","status":"online","latitude":"51.57289854714875","longitude":"-0.016254156427111092","performance2":"0.675545795742033","performance1":"-1.0842150321135031"},{"id":70,"name":"decent-cloud-frog","status":"offline","latitude":"51.56592924654292","longitude":"-0.09493588839818973","performance2":"0.700351611461497","performance1":"0.4865432297582727"},{"id":71,"name":"decent-sepia-platypus","status":"offline","latitude":"51.534227568001135","longitude":"-0.09060580368433216","performance2":"0.812748981138738","performance1":"-1.8601821360924624"},{"id":72,"name":"deep-fleece-seagull","status":"online","latitude":"51.6065809169197","longitude":"-0.009690801144026477","performance2":"0.4179018259701225","performance1":"-1.35871957685305"},{"id":73,"name":"delightful-chiffon-ladybug","status":"online","latitude":"51.51584794730042","longitude":"-0.022864506697903703","performance2":"0.13955337745227103","performance1":"0.6477869074941413"},{"id":74,"name":"delightful-quartz-perch","status":"online","latitude":"51.45054036721306","longitude":"0.06472317820902443","performance2":"0.4141278809821469","performance1":"-1.5779951670762127"},{"id":75,"name":"dizzy-satin-lark","status":"online","latitude":"51.518472834239255","longitude":"-0.16943976113466133","performance2":"0.9750798832094142","performance1":"1.2951897896534068"},{"id":76,"name":"docile-bamboo-blackbird","status":"online","latitude":"51.49942408896607","longitude":"-0.04990082539206739","performance2":"0.8207985053060826","performance1":"-1.0125127730184946"},{"id":77,"name":"docile-lemon-nuthatch","status":"online","latitude":"51.46086234139482","longitude":"-0.11434631043692554","performance2":"0.5593830784534002","performance1":"-0.45979740288567894"},{"id":78,"name":"dry-powder-raccoon","status":"offline","latitude":"51.536390149347476","longitude":"0.04086129149349063","performance2":"0.178982729288499","performance1":"1.0720072682720252"},{"id":79,"name":"dry-vanilla-blackbird","status":"online","latitude":"51.48145185807347","longitude":"-0.17771246529237106","performance2":"0.3563078148978639","performance1":"-0.9593193872141498"},{"id":80,"name":"eager-citron-fox","status":"online","latitude":"51.518472834239255","longitude":"-0.16943976113466133","performance2":"0.6518237833927886","performance1":"-0.5734602267259622"},{"id":81,"name":"early-marmalade-walrus","status":"online","latitude":"51.51851535199226","longitude":"-0.16968875167264014","performance2":"0.79807075658128","performance1":"0.358808124952247"},{"id":82,"name":"elegant-chocolate-pigeon","status":"online","latitude":"51.518472834239255","longitude":"-0.16943976113466133","performance2":"0.2802420071505207","performance1":"1.1722395179253478"},{"id":83,"name":"elegant-opal-goblin","status":"online","latitude":"51.407847402571214","longitude":"-0.0612416875990869","performance2":"0.007504235331507014","performance1":"-0.17293692790269902"},{"id":84,"name":"energetic-lead-mammoth","status":"online","latitude":"51.51851535199226","longitude":"-0.16968875167264014","performance2":"0.9816241604278034","performance1":"1.3664175402864756"},{"id":85,"name":"energetic-turquoise-sawfish","status":"online","latitude":"51.51851535199226","longitude":"-0.16968875167264014","performance2":"0.8867187772799496","performance1":"-0.31475750865888896"},{"id":86,"name":"exotic-blonde-canary","status":"offline","latitude":"51.53408451711168","longitude":"0.05336952609656858","performance2":"0.11479572767297852","performance1":"0.8150997244544832"},{"id":87,"name":"exotic-inky-moth","status":"online","latitude":"51.50151453487085","longitude":"-0.09046153577317098","performance2":"0.48819032632563075","performance1":"-1.3792205504172794"},{"id":88,"name":"expert-bubblegum-rooster","status":"online","latitude":"51.48020122146022","longitude":"-0.12090078560112676","performance2":"0.11696965149764771","performance1":"-1.2989834413208383"},{"id":89,"name":"faint-taffy-unicorn","status":"offline","latitude":"51.486279821931525","longitude":"-0.20517888835883646","performance2":"0.4092514340757679","performance1":"-0.8716019569291474"},{"id":90,"name":"fancy-gingham-stallion","status":"online","latitude":"51.51851535199226","longitude":"-0.16968875167264014","performance2":"0.31249991878574634","performance1":"0.29467423104728085"},{"id":91,"name":"fancy-turquoise-goat","status":"online","latitude":"51.53706092250194","longitude":"-0.07119972650816911","performance2":"0.2891308070589138","performance1":"-1.1779132774045742"},{"id":92,"name":"fast-chrome-deer","status":"online","latitude":"51.46851576769679","longitude":"-0.03861723245858322","performance2":"0.909899961740166","performance1":"-0.47587826773167513"},{"id":93,"name":"feisty-aqua-gazelle","status":"online","latitude":"51.46649417592002","longitude":"-0.1757989975430052","performance2":"0.8384070709744862","performance1":"-0.2273578009059289"},{"id":94,"name":"feisty-currant-duck","status":"online","latitude":"51.494228797755845","longitude":"-0.16602460332290592","performance2":"0.8517628356601202","performance1":"1.2416430728378012"},{"id":95,"name":"feisty-fossilized-python","status":"online","latitude":"51.47958651015247","longitude":"-0.03544449662455018","performance2":"0.8518496263862023","performance1":"1.386519590644371"},{"id":96,"name":"festive-red-cheetah","status":"offline","latitude":"51.5376038366156","longitude":"0.06202315923640639","performance2":"0.613151049154332","performance1":"-0.5057831301764585"},{"id":97,"name":"festive-sepia-nightingale","status":"online","latitude":"51.51851535199226","longitude":"-0.16968875167264014","performance2":"0.47503531899242013","performance1":"0.20787985773514703"},{"id":98,"name":"festive-strawberry-dalmatian","status":"online","latitude":"51.48646313006125","longitude":"-0.1885883166052558","performance2":"0.7540105543278453","performance1":"-0.47116083921105045"},{"id":99,"name":"fierce-chiffon-carp","status":"online","latitude":"51.49899920195426","longitude":"0.02662369580055928","performance2":"0.09567585254206434","performance1":"0.48880725862991614"},{"id":100,"name":"fierce-cobalt-pheasant","status":"online","latitude":"51.59807732191497","longitude":"-0.06184636814223495","performance2":"0.9738024711620376","performance1":"-1.442664301654802"},{"id":101,"name":"fierce-iris-jaguar","status":"online","latitude":"51.45221980625041","longitude":"-0.11748952679825532","performance2":"0.10566761981865536","performance1":"-0.49808319879647395"},{"id":102,"name":"fit-garnet-moth","status":"online","latitude":"51.48439255507506","longitude":"-0.2176752383533164","performance2":"0.10925133245096341","performance1":"-0.5754117701612903"},{"id":103,"name":"flat-pearl-huskie","status":"online","latitude":"51.518716126771594","longitude":"-0.17002484963580666","performance2":"0.3778705596201324","performance1":"-1.7826915363898312"},{"id":104,"name":"fluffy-sable-spider","status":"online","latitude":"51.51851535199226","longitude":"-0.16968875167264014","performance2":"0.7485940798690962","performance1":"-0.24882311502068497"},{"id":105,"name":"formal-golden-sardine","status":"online","latitude":"51.495836225457296","longitude":"-0.09748559758815482","performance2":"0.6124164931873002","performance1":"-0.6273435165117961"},{"id":106,"name":"formal-pecan-rat","status":"online","latitude":"51.51851535199226","longitude":"-0.16968875167264014","performance2":"0.9541995035880082","performance1":"-0.03756700305217299"},{"id":107,"name":"formal-rainbow-cod","status":"online","latitude":"51.50287812426497","longitude":"-0.19401678269685851","performance2":"0.21981962848877123","performance1":"1.2263738455952307"},{"id":108,"name":"fresh-paisley-moth","status":"offline","latitude":"51.415441640822905","longitude":"-0.05032423287594805","performance2":"0.9982197247344932","performance1":"1.162837028198834"},{"id":109,"name":"fun-chartreuse-jaguar","status":"online","latitude":"51.484183229473246","longitude":"0.08078909240349841","performance2":"0.28549024615527285","performance1":"0.08743926567443473"},{"id":110,"name":"fun-ebony-snake","status":"online","latitude":"51.52864093030519","longitude":"-0.1274425671879582","performance2":"0.10788223697676713","performance1":"1.5735680733807995"},{"id":111,"name":"fun-opal-marmot","status":"online","latitude":"51.518472834239255","longitude":"-0.16943976113466133","performance2":"0.32860989917709815","performance1":"0.04752782232995439"},{"id":112,"name":"future-stone-badger","status":"online","latitude":"51.45893595408416","longitude":"-0.12320014593520286","performance2":"0.9232518339109005","performance1":"-0.8329432871758329"},{"id":113,"name":"genuine-amethyst-donkey","status":"online","latitude":"51.51851535199226","longitude":"-0.16968875167264014","performance2":"0.23044226784016208","performance1":"0.18127316258475334"},{"id":114,"name":"genuine-punch-goose","status":"online","latitude":"51.46689058685092","longitude":"-0.1915733781557504","performance2":"0.041237773675966705","performance1":"0.9483037697296218"},{"id":115,"name":"genuine-ruby-wallaby","status":"online","latitude":"51.4875391426125","longitude":"0.08210850397145902","performance2":"0.33817715953942806","performance1":"-1.3392563890291034"},{"id":116,"name":"genuine-taupe-woodpecker","status":"online","latitude":"51.520578568680754","longitude":"-0.09461021663826698","performance2":"0.2068878698282074","performance1":"-0.4537355167892791"},{"id":117,"name":"gigantic-basil-turtle","status":"online","latitude":"51.4922355127305","longitude":"0.03008945504985895","performance2":"0.12830967067824728","performance1":"0.3477946969016945"},{"id":118,"name":"gigantic-pickle-horse","status":"online","latitude":"51.51851535199226","longitude":"-0.16968875167264014","performance2":"0.3132327147094348","performance1":"-2.9057449613080237"},{"id":119,"name":"glorious-rainbow-tuna","status":"online","latitude":"51.51022333723553","longitude":"-0.20934591257960114","performance2":"0.6179645605760639","performance1":"-0.7256448248325312"},{"id":120,"name":"great-sky-panther","status":"online","latitude":"51.535304433371216","longitude":"-0.14711973632618602","performance2":"0.14017217350902678","performance1":"0.6764483203074809"},{"id":121,"name":"handsome-rosewood-hippo","status":"online","latitude":"51.47557914652769","longitude":"-0.17019881270674986","performance2":"0.7769571986198855","performance1":"0.14928285937444818"},{"id":122,"name":"happy-denim-aphid","status":"online","latitude":"51.567251346958656","longitude":"-0.0300602033464195","performance2":"0.12582327376803448","performance1":"0.8580984902048114"},{"id":123,"name":"helpful-flint-starling","status":"offline","latitude":"51.48632323674858","longitude":"-0.16844131948485253","performance2":"0.2592206954996611","performance1":"0.12183508231390343"},{"id":124,"name":"hidden-foggy-moose","status":"online","latitude":"51.47391284584201","longitude":"-0.09424985032443492","performance2":"0.5978112251442109","performance1":"0.09232585560874235"},{"id":125,"name":"high-arctic-whale","status":"online","latitude":"51.44129875123756","longitude":"0.04683813525799251","performance2":"0.9698280587455884","performance1":"-0.4421782452414941"},{"id":126,"name":"high-chocolate-hippo","status":"offline","latitude":"51.54314251183348","longitude":"0.05900166330827885","performance2":"0.6740707810324986","performance1":"2.2952880257898918"},{"id":127,"name":"high-jetblack-platypus","status":"offline","latitude":"51.60231431863408","longitude":"-0.0673307652990541","performance2":"0.22243514323508518","performance1":"0.01668069010683503"},{"id":128,"name":"hollow-currant-robin","status":"offline","latitude":"51.540796124856776","longitude":"0.058481930727196776","performance2":"0.021526394932311788","performance1":"-0.44904712267656866"},{"id":129,"name":"hollow-gauze-goose","status":"online","latitude":"51.51851535199226","longitude":"-0.16968875167264014","performance2":"0.5450804329658767","performance1":"-0.25620288502731775"},{"id":130,"name":"hollow-pastel-wren","status":"offline","latitude":"51.45983338997858","longitude":"-0.1712355400006646","performance2":"0.898251131398243","performance1":"-0.5953207506245728"},{"id":131,"name":"hot-bronze-carp","status":"online","latitude":"51.53091278909253","longitude":"-0.20201728026196286","performance2":"0.10676845141417879","performance1":"-1.9226417402972682"},{"id":132,"name":"howling-umber-grasshopper","status":"online","latitude":"51.545764102692026","longitude":"-0.07597384103182624","performance2":"0.09307414651106427","performance1":"-0.3945181059323739"},{"id":133,"name":"huge-fiery-dalmatian","status":"online","latitude":"51.51851535199226","longitude":"-0.16968875167264014","performance2":"0.320113120201565","performance1":"-0.011581326838727458"},{"id":134,"name":"icy-chrome-rabbit","status":"online","latitude":"51.41727945412143","longitude":"-0.18841145895892228","performance2":"0.5561282710743338","performance1":"1.9356940214407334"},{"id":135,"name":"immense-mossy-copperhead","status":"online","latitude":"51.4819720587851","longitude":"-0.1270552399630301","performance2":"0.860850394639402","performance1":"1.258882891979367"},{"id":136,"name":"immense-quartz-duck","status":"online","latitude":"51.573856243441575","longitude":"-0.1378733951478899","performance2":"0.46374018529892813","performance1":"-0.8992610678768219"},{"id":137,"name":"innocent-daisy-sawfish","status":"online","latitude":"51.517314657771436","longitude":"-0.15594521539286185","performance2":"0.4397790875590364","performance1":"-0.22711593455636755"},{"id":138,"name":"interesting-brick-wasp","status":"offline","latitude":"51.50427692259236","longitude":"-0.018111599091522858","performance2":"0.5410289688562089","performance1":"1.186839877004576"},{"id":139,"name":"interesting-shamrock-lark","status":"offline","latitude":"51.50801578983754","longitude":"-0.14181187859729874","performance2":"0.9538743153587985","performance1":"-0.7565419029885004"},{"id":140,"name":"itchy-sage-tardigrade","status":"online","latitude":"51.59772190567136","longitude":"-0.03977730453741735","performance2":"0.8720553340917542","performance1":"1.008113640174976"},{"id":141,"name":"jovial-coal-copperhead","status":"online","latitude":"51.55433654919778","longitude":"-0.08834367041731282","performance2":"0.24257272921759754","performance1":"-0.7770181273739941"},{"id":142,"name":"jovial-quartz-vulture","status":"online","latitude":"51.5406704675964","longitude":"-0.2374322424138209","performance2":"0.43565546332311955","performance1":"-0.03882180176799913"},{"id":143,"name":"joyful-felt-toad","status":"offline","latitude":"51.52140370914297","longitude":"-0.11782943345603845","performance2":"0.9391463657282902","performance1":"-0.2790952063299238"},{"id":144,"name":"joyous-fleece-chinchilla","status":"online","latitude":"51.518472834239255","longitude":"-0.16943976113466133","performance2":"0.30479627444285684","performance1":"0.6716521369101736"},{"id":145,"name":"jumpy-chambray-gibbon","status":"online","latitude":"51.58977200522305","longitude":"-0.11616501009715766","performance2":"0.557694442000778","performance1":"-0.12357941629410754"},{"id":146,"name":"jumpy-mustard-opossum","status":"online","latitude":"51.51851535199226","longitude":"-0.16968875167264014","performance2":"0.21235634972877293","performance1":"-0.7237600643836893"},{"id":147,"name":"keen-sangria-hippo","status":"online","latitude":"51.51851535199226","longitude":"-0.16968875167264014","performance2":"0.08027883757119092","performance1":"-1.2521533844302375"},{"id":148,"name":"keen-viridian-deer","status":"online","latitude":"51.51851535199226","longitude":"-0.16968875167264014","performance2":"0.04600444659516967","performance1":"-0.629473015633376"},{"id":149,"name":"kind-merlot-salamander","status":"online","latitude":"51.51851535199226","longitude":"-0.16968875167264014","performance2":"0.3690267183530944","performance1":"1.737978810514516"},{"id":150,"name":"large-linen-frog","status":"online","latitude":"51.518472834239255","longitude":"-0.16943976113466133","performance2":"0.5924557393903175","performance1":"0.007606053710624636"},{"id":151,"name":"little-amethyst-armadillo","status":"online","latitude":"51.521499656132896","longitude":"-0.33914179725722976","performance2":"0.9632443464724734","performance1":"-0.050695700905247325"},{"id":152,"name":"lively-oily-pony","status":"offline","latitude":"51.54283338921731","longitude":"0.05084529619380312","performance2":"0.4571389764905528","performance1":"-0.34716396547541367"},{"id":153,"name":"lively-teal-pike","status":"online","latitude":"51.52362940386971","longitude":"-0.1946173944771969","performance2":"0.06989786829920963","performance1":"0.19025638626056918"},{"id":154,"name":"lively-watermelon-cow","status":"online","latitude":"51.45920664442256","longitude":"-0.18689546969052512","performance2":"0.38261460952860804","performance1":"1.0126084243585929"},{"id":155,"name":"lone-scarlet-terrier","status":"online","latitude":"51.57160769511161","longitude":"-0.07708191725160056","performance2":"0.7096272859912371","performance1":"-0.30006705883216"},{"id":156,"name":"lone-viridian-hippo","status":"online","latitude":"51.49523839657167","longitude":"-0.18958445001982466","performance2":"0.431673008809185","performance1":"-0.21489684367020628"},{"id":157,"name":"long-dijon-goose","status":"online","latitude":"51.51851535199226","longitude":"-0.16968875167264014","performance2":"0.868360938124716","performance1":"0.8274150207682154"},{"id":158,"name":"loud-lilac-rook","status":"offline","latitude":"51.53715679012859","longitude":"0.04471811232768322","performance2":"0.03867208616574591","performance1":"0.09813713413346933"},{"id":159,"name":"loud-pine-turtle","status":"online","latitude":"51.50579047677574","longitude":"-0.21615535687851656","performance2":"0.0010856966400362156","performance1":"2.5219601621829772"},{"id":160,"name":"low-bronze-fox","status":"online","latitude":"51.515404187223155","longitude":"-0.19347059680820225","performance2":"0.20844268485737472","performance1":"0.11289032258972514"},{"id":161,"name":"low-syrup-octopus","status":"online","latitude":"51.528317057592204","longitude":"-0.04117429793848113","performance2":"0.5181758628990799","performance1":"1.3605454956608123"},{"id":162,"name":"macho-orange-rhino","status":"online","latitude":"51.52769717632764","longitude":"-0.13616967335302316","performance2":"0.20055692351209953","performance1":"1.515771606783435"},{"id":163,"name":"magnificent-orange-llama","status":"online","latitude":"51.423433840097225","longitude":"-0.06009006943787525","performance2":"0.07852315654871633","performance1":"2.203837048874469"},{"id":164,"name":"main-felt-haddock","status":"online","latitude":"51.600378412779435","longitude":"-0.03356847175693747","performance2":"0.5661930587886077","performance1":"0.3435358976782387"},{"id":165,"name":"mammoth-shamrock-scallop","status":"online","latitude":"51.507224465471204","longitude":"-0.021074097670784737","performance2":"0.6772064326034876","performance1":"0.6707492929787975"},{"id":166,"name":"massive-felt-sparrow","status":"online","latitude":"51.49327617682314","longitude":"-0.17136365712288634","performance2":"0.16295079249160183","performance1":"-2.132608236004722"},{"id":167,"name":"mean-burlap-cod","status":"online","latitude":"51.39538201526967","longitude":"-0.08141501044656536","performance2":"0.9664374727557659","performance1":"1.6620240835506435"},{"id":168,"name":"mean-emerald-nuthatch","status":"online","latitude":"51.51851535199226","longitude":"-0.16968875167264014","performance2":"0.9248813137266553","performance1":"-0.12053506915661855"},{"id":169,"name":"melodic-cornflower-bird","status":"offline","latitude":"51.53768354377761","longitude":"0.05410559402730705","performance2":"0.7548584267982595","performance1":"0.7859841295207626"},{"id":170,"name":"melted-indigo-beaver","status":"online","latitude":"51.518472834239255","longitude":"-0.16943976113466133","performance2":"0.5552951867051112","performance1":"-2.011883610107878"},{"id":171,"name":"melted-lipstick-kangaroo","status":"online","latitude":"51.45900914260539","longitude":"-0.1227898017325864","performance2":"0.47486341842815216","performance1":"0.16781303106818216"},{"id":172,"name":"merry-glossy-troll","status":"online","latitude":"51.54917156205526","longitude":"-0.267207867588807","performance2":"0.3103481028319479","performance1":"-0.500963666057181"},{"id":173,"name":"micro-merlot-mole","status":"offline","latitude":"51.54161918617233","longitude":"-0.2632580948570861","performance2":"0.48592236855373483","performance1":"-0.352407403297486"},{"id":174,"name":"mini-lime-canary","status":"online","latitude":"51.49952347387503","longitude":"-0.19284616165500065","performance2":"0.3245179370710811","performance1":"-1.524824077429162"},{"id":175,"name":"modern-admiral-reindeer","status":"online","latitude":"51.477894184152404","longitude":"-0.11580472645413804","performance2":"0.7187177977942297","performance1":"-0.017621040998925256"},{"id":176,"name":"modern-mint-shrimp","status":"online","latitude":"51.48475436675193","longitude":"0.0923877583340222","performance2":"0.037115300040181154","performance1":"-0.9681201137937911"},{"id":177,"name":"muscular-pearl-bull","status":"online","latitude":"51.514750987996024","longitude":"-0.2131959614898188","performance2":"0.9287024158197301","performance1":"-0.7679916946747735"},{"id":178,"name":"mysterious-cobalt-snake","status":"online","latitude":"51.504127762424154","longitude":"-0.20892010636290187","performance2":"0.4594993488253112","performance1":"0.5214102050198408"},{"id":179,"name":"mysterious-dijon-fish","status":"online","latitude":"51.473664206644116","longitude":"-0.18334965174094814","performance2":"0.029377886584566082","performance1":"-1.3079772896467325"},{"id":180,"name":"mysterious-saffron-cormorant","status":"online","latitude":"51.48054324841242","longitude":"-0.11117531008021643","performance2":"0.04867320534111941","performance1":"0.017075987656913077"},{"id":181,"name":"mythical-eggshell-ferret","status":"online","latitude":"51.54284633466742","longitude":"-0.2544470103217095","performance2":"0.8882980006344522","performance1":"0.6223696941592953"},{"id":182,"name":"mythical-pear-cheetah","status":"online","latitude":"51.518472834239255","longitude":"-0.16943976113466133","performance2":"0.9505841129829449","performance1":"0.7266226581711525"},{"id":183,"name":"narrow-brunette-troll","status":"online","latitude":"51.551341806654406","longitude":"-0.13360839965319596","performance2":"0.8093845307530964","performance1":"-1.1922400132617768"},{"id":184,"name":"narrow-hazel-pike","status":"offline","latitude":"51.54881611204157","longitude":"-0.12973793348452162","performance2":"0.9652464794348034","performance1":"-1.0279897729429246"},{"id":185,"name":"narrow-paisley-parrot","status":"online","latitude":"51.51851535199226","longitude":"-0.16968875167264014","performance2":"0.6131359599799957","performance1":"-0.3917236765129034"},{"id":186,"name":"narrow-strawberry-newt","status":"offline","latitude":"51.55108960269354","longitude":"0.06276559052186806","performance2":"0.7625470101301162","performance1":"-0.9736436136970539"},{"id":187,"name":"nice-watermelon-liger","status":"online","latitude":"51.45647580071859","longitude":"0.05362787468727236","performance2":"0.9927111550718073","performance1":"0.0373423536743324"},{"id":188,"name":"noisy-raspberry-condor","status":"offline","latitude":"51.552439596763534","longitude":"0.059103769484401214","performance2":"0.2745341438197856","performance1":"0.7881794974175339"},{"id":189,"name":"noisy-vinyl-squid","status":"offline","latitude":"51.53563642040759","longitude":"0.06759515311203525","performance2":"0.12089365433904531","performance1":"0.7799446843806578"},{"id":190,"name":"nutty-clear-pony","status":"online","latitude":"51.518472834239255","longitude":"-0.16943976113466133","performance2":"0.3926422697801297","performance1":"0.41479953543285103"},{"id":191,"name":"obedient-fern-swallow","status":"online","latitude":"51.51851535199226","longitude":"-0.16968875167264014","performance2":"0.9541566006759242","performance1":"0.7544144501449723"},{"id":192,"name":"obedient-velvet-mink","status":"online","latitude":"51.4785216527872","longitude":"-0.11276968123661815","performance2":"0.7494468385896008","performance1":"0.5023085885356721"},{"id":193,"name":"oblong-teal-pheasant","status":"online","latitude":"51.51851535199226","longitude":"-0.16968875167264014","performance2":"0.1032049868141034","performance1":"0.02316921934601273"},{"id":194,"name":"oblong-wool-panther","status":"online","latitude":"51.45905170950019","longitude":"-0.12303839913705104","performance2":"0.827584403837712","performance1":"1.9490456231114555"},{"id":195,"name":"orbiting-cyan-wolf","status":"online","latitude":"51.567777864110106","longitude":"-0.13836439190505487","performance2":"0.694667317755388","performance1":"0.7319647342436789"},{"id":196,"name":"original-jade-trout","status":"online","latitude":"51.51103645810754","longitude":"-0.0774339852764536","performance2":"0.0014235422771441408","performance1":"0.974847830984934"},{"id":197,"name":"overt-juniper-swallow","status":"online","latitude":"51.51851535199226","longitude":"-0.16968875167264014","performance2":"0.448447710644137","performance1":"-0.45099396234670364"},{"id":198,"name":"overt-neon-donkey","status":"offline","latitude":"51.41560001137333","longitude":"-0.05041076245759549","performance2":"0.5975635131992288","performance1":"-0.38433931682655065"},{"id":199,"name":"passive-flaxen-owl","status":"online","latitude":"51.53344082019879","longitude":"-0.05096417421739992","performance2":"0.6328266331187291","performance1":"-0.9746811247881023"},{"id":200,"name":"passive-pistachio-scallop","status":"online","latitude":"51.529353396216834","longitude":"-0.21221873984092413","performance2":"0.660993671833677","performance1":"0.354741112027523"},{"id":201,"name":"perfect-marigold-goblin","status":"online","latitude":"51.518472834239255","longitude":"-0.16943976113466133","performance2":"0.013277228660908746","performance1":"-0.7896847091300844"},{"id":202,"name":"pet-white-sealion","status":"online","latitude":"51.546666864288966","longitude":"-0.1540489766070957","performance2":"0.9500524695707201","performance1":"-0.8843756448398995"},{"id":203,"name":"powerful-emerald-terrier","status":"online","latitude":"51.46550495048452","longitude":"-0.15992774026239168","performance2":"0.2075491737927211","performance1":"0.15367709139991892"},{"id":204,"name":"precise-cloud-baboon","status":"offline","latitude":"51.530724573990184","longitude":"0.06285078985858984","performance2":"0.036772271248938115","performance1":"1.2114876461420627"},{"id":205,"name":"precise-peanut-carp","status":"offline","latitude":"51.58173387021882","longitude":"-0.038448859025263016","performance2":"0.732550643935021","performance1":"1.1577019793784584"},{"id":206,"name":"precise-turquoise-hamster","status":"online","latitude":"51.48654058977127","longitude":"-0.21344406701499447","performance2":"0.18303321915889248","performance1":"-0.667294634475643"},{"id":207,"name":"prehistoric-aegean-dog","status":"online","latitude":"51.518472834239255","longitude":"-0.16943976113466133","performance2":"0.5221727998182115","performance1":"-1.2734553642025797"},{"id":208,"name":"prehistoric-chocolate-eagle","status":"offline","latitude":"51.5462116038156","longitude":"0.06362693836050627","performance2":"0.12945353486870426","performance1":"-1.1916462208517156"},{"id":209,"name":"proud-iron-gibbon","status":"online","latitude":"51.51851535199226","longitude":"-0.16968875167264014","performance2":"0.7291224526544949","performance1":"1.4349545380367699"},{"id":210,"name":"puny-carbon-chimpanzee","status":"offline","latitude":"51.52746225819118","longitude":"-0.19943805394177616","performance2":"0.6632889744840604","performance1":"0.5022669402304765"},{"id":211,"name":"puny-nylon-fox","status":"online","latitude":"51.51298406369968","longitude":"0.00706278339437787","performance2":"0.039505666126171346","performance1":"-0.3117495374736461"},{"id":212,"name":"quaint-eggshell-mammoth","status":"offline","latitude":"51.53492773701388","longitude":"0.046834750383702266","performance2":"0.41974170388261167","performance1":"0.32969166186665755"},{"id":213,"name":"quick-daisy-mole","status":"online","latitude":"51.52038363670511","longitude":"-0.26823871242776776","performance2":"0.8013759145825516","performance1":"-0.15856833883121577"},{"id":214,"name":"quick-latte-goldfish","status":"online","latitude":"51.45018133742606","longitude":"-0.10894063977126836","performance2":"0.6706786066999697","performance1":"0.2812715941230536"},{"id":215,"name":"quiet-arctic-pony","status":"online","latitude":"51.47039727965841","longitude":"-0.12227978501930582","performance2":"0.8641763917492531","performance1":"-0.15234802303764067"},{"id":216,"name":"quiet-chiffon-lynx","status":"online","latitude":"51.515055217996256","longitude":"-0.2343574560245717","performance2":"0.18127205730370544","performance1":"1.356581415043786"},{"id":217,"name":"radiant-bamboo-perch","status":"online","latitude":"51.52320582399367","longitude":"-0.2612145779420616","performance2":"0.6746887897777417","performance1":"-1.4362966204921488"},{"id":218,"name":"radiant-charcoal-eagle","status":"online","latitude":"51.47270640607295","longitude":"-0.03213255239680608","performance2":"0.3723114176783854","performance1":"0.7790954891181856"},{"id":219,"name":"radiant-cornflower-bear","status":"online","latitude":"51.41601583776363","longitude":"-0.07537930325273315","performance2":"0.07516221289323777","performance1":"-0.6883541887225731"},{"id":220,"name":"raspy-pink-mantis","status":"online","latitude":"51.48702291462272","longitude":"-0.18934750675123652","performance2":"0.7662026579430947","performance1":"1.5674073843152536"},{"id":221,"name":"real-blush-seagull","status":"online","latitude":"51.49924000313847","longitude":"-0.1081403873523075","performance2":"0.33095094321945906","performance1":"0.04849016685049106"},{"id":222,"name":"real-lava-owl","status":"online","latitude":"51.518472834239255","longitude":"-0.16943976113466133","performance2":"0.8875901022909959","performance1":"1.1034358912248532"},{"id":223,"name":"real-stone-worm","status":"offline","latitude":"51.543999266545754","longitude":"-0.2460474406509115","performance2":"0.0353609393564559","performance1":"0.5354597586399943"},{"id":224,"name":"restless-boysenberry-starfish","status":"offline","latitude":"51.5459704652273","longitude":"-0.08803438246185992","performance2":"0.44388810968903414","performance1":"-0.505962389097944"},{"id":225,"name":"restless-purple-mallard","status":"offline","latitude":"51.54602634211022","longitude":"-0.1620453979778748","performance2":"0.6709636362163528","performance1":"-0.578236176187914"},{"id":226,"name":"rhythmic-coral-hippo","status":"offline","latitude":"51.434511907738134","longitude":"-0.2179463384993173","performance2":"0.1913174225674963","performance1":"1.3415765421500538"},{"id":227,"name":"rhythmic-myrtle-weasel","status":"online","latitude":"51.48265490543045","longitude":"-0.1461356893910927","performance2":"0.42468602741124006","performance1":"1.0237339216148325"},{"id":228,"name":"rich-coal-vulture","status":"online","latitude":"51.51851535199226","longitude":"-0.16968875167264014","performance2":"0.2969262660443017","performance1":"-0.3568087862195361"},{"id":229,"name":"rich-pearl-baboon","status":"online","latitude":"51.51851535199226","longitude":"-0.16968875167264014","performance2":"0.1886595865720314","performance1":"1.388334484719918"},{"id":230,"name":"rich-rouge-woodpecker","status":"online","latitude":"51.52974169170314","longitude":"-0.07281951038882951","performance2":"0.7531671646786466","performance1":"-1.8935341022710923"},{"id":231,"name":"ripe-ultraviolet-raccoon","status":"online","latitude":"51.51851535199226","longitude":"-0.16968875167264014","performance2":"0.2513810789357571","performance1":"-1.1819943643514017"},{"id":232,"name":"round-cinnabar-sidewinder","status":"online","latitude":"51.519072447029146","longitude":"-0.161197803675896","performance2":"0.6074373673953378","performance1":"-0.8401084652411062"},{"id":233,"name":"rural-wool-goat","status":"online","latitude":"51.49794445180562","longitude":"-0.19536053352890606","performance2":"0.6426837733423816","performance1":"-1.3485614247977775"},{"id":234,"name":"salty-tangelo-panda","status":"online","latitude":"51.43880504915516","longitude":"-0.1045074549154837","performance2":"0.29756108681016846","performance1":"-0.08936223894469962"},{"id":235,"name":"savory-charcoal-lion","status":"online","latitude":"51.41306775874045","longitude":"-0.07241734253113535","performance2":"0.42693631843683155","performance1":"0.49950079645883944"},{"id":236,"name":"savory-citron-wombat","status":"online","latitude":"51.53091278909253","longitude":"-0.20201728026196286","performance2":"0.4080661092701616","performance1":"-2.528111477021319"},{"id":237,"name":"savory-plastic-boar","status":"online","latitude":"51.478205047702104","longitude":"-0.11259599369772501","performance2":"0.9276073724402357","performance1":"-0.9119627244225543"},{"id":238,"name":"scrawny-strawberry-gazelle","status":"online","latitude":"51.51851535199226","longitude":"-0.16968875167264014","performance2":"0.14581271691176279","performance1":"1.0894144757997537"},{"id":239,"name":"scruffy-eggshell-unicorn","status":"online","latitude":"51.508293409901526","longitude":"-0.06646933075700041","performance2":"0.029663476101026154","performance1":"-0.6561047246933145"},{"id":240,"name":"shaggy-maroon-manatee","status":"online","latitude":"51.489816712908365","longitude":"-0.2208901150393083","performance2":"0.03731318063760558","performance1":"0.4461305342580905"},{"id":241,"name":"shallow-burlap-scallop","status":"offline","latitude":"51.50083875438111","longitude":"-0.08986565255377874","performance2":"0.23049685008155596","performance1":"0.16173316596365953"},{"id":242,"name":"shallow-carmine-hedgehog","status":"online","latitude":"51.56598894820672","longitude":"-0.10782488626850414","performance2":"0.14948447440657464","performance1":"-1.1497709280588304"},{"id":243,"name":"shallow-walnut-yak","status":"online","latitude":"51.4907457096495","longitude":"-0.2516451847133025","performance2":"0.46499860015852845","performance1":"2.227165265044325"},{"id":244,"name":"shambolic-cerulean-wolverine","status":"offline","latitude":"51.549590351077974","longitude":"0.04243079180973055","performance2":"0.8906752167820836","performance1":"-0.7420142670170587"},{"id":245,"name":"sharp-cherry-mallard","status":"online","latitude":"51.423525386027926","longitude":"-0.08736256225429556","performance2":"0.9692204009998269","performance1":"-2.2496933315355228"},{"id":246,"name":"sharp-gingerbread-halibut","status":"online","latitude":"51.51470202836921","longitude":"-0.027866218524094703","performance2":"0.11621396252607274","performance1":"-1.6600010427372556"},{"id":247,"name":"shiny-wool-walrus","status":"online","latitude":"51.58169601628871","longitude":"-0.2359226384083229","performance2":"0.21147023666877218","performance1":"0.9410218491490401"},{"id":248,"name":"short-arctic-raccoon","status":"online","latitude":"51.480647319236105","longitude":"0.13258181820945064","performance2":"0.8969279720735992","performance1":"0.33798068428979067"},{"id":249,"name":"short-blue-lynx","status":"online","latitude":"51.513278503087825","longitude":"-0.17176927423810132","performance2":"0.9886171654424224","performance1":"-0.2564468307882143"},{"id":250,"name":"short-cinnamon-owl","status":"offline","latitude":"51.59088391287104","longitude":"-0.03084215941596266","performance2":"0.542553580535573","performance1":"0.7444828134761382"},{"id":251,"name":"short-cloth-armadillo","status":"online","latitude":"51.51851535199226","longitude":"-0.16968875167264014","performance2":"0.8702060573917462","performance1":"0.9923223233950902"},{"id":252,"name":"short-dijon-robin","status":"online","latitude":"51.51851535199226","longitude":"-0.16968875167264014","performance2":"0.7568853010334924","performance1":"0.8652389202383838"},{"id":253,"name":"short-navy-mink","status":"online","latitude":"51.59705599142662","longitude":"-0.19989062488374476","performance2":"0.545195771403193","performance1":"0.8498216570408361"},{"id":254,"name":"silly-eggplant-flamingo","status":"online","latitude":"51.518472834239255","longitude":"-0.16943976113466133","performance2":"0.8711192731933378","performance1":"-0.2610071778633904"},{"id":255,"name":"silly-glossy-dachshund","status":"online","latitude":"51.39404361378154","longitude":"-0.06359277067653872","performance2":"0.6295768577135603","performance1":"-2.13148948842831"},{"id":256,"name":"silly-heather-jay","status":"online","latitude":"51.50105008191533","longitude":"-0.2979866740283113","performance2":"0.3202810676779787","performance1":"-0.6854580191329894"},{"id":257,"name":"skinny-honeysuckle-bird","status":"online","latitude":"51.49380999173354","longitude":"-0.1854147273045223","performance2":"0.25882005899094995","performance1":"0.27083561852092175"},{"id":258,"name":"skinny-tartan-cricket","status":"online","latitude":"51.51851535199226","longitude":"-0.16968875167264014","performance2":"0.12366257082846888","performance1":"-0.850683514666602"},{"id":259,"name":"small-caramel-eagle","status":"online","latitude":"51.518472834239255","longitude":"-0.16943976113466133","performance2":"0.7473924023629451","performance1":"-0.30841489891164997"},{"id":260,"name":"small-ceramic-terrier","status":"offline","latitude":"51.561384815078775","longitude":"-0.2260567725338652","performance2":"0.9397744842988269","performance1":"0.2451207348275192"},{"id":261,"name":"small-misty-skunk","status":"online","latitude":"51.42229534290427","longitude":"-0.08353924993264336","performance2":"0.47425668550185496","performance1":"0.7472406075732997"},{"id":262,"name":"small-peach-deer","status":"online","latitude":"51.55094537201214","longitude":"-0.2329418710573169","performance2":"0.15013411270919919","performance1":"0.5886225831016675"},{"id":263,"name":"small-violet-shrimp","status":"online","latitude":"51.518472834239255","longitude":"-0.16943976113466133","performance2":"0.14803911725387597","performance1":"0.7539142943229448"},{"id":264,"name":"smooth-mulberry-mole","status":"online","latitude":"51.48500424728364","longitude":"-0.08366289897491956","performance2":"0.7265447633046909","performance1":"1.121570746459223"},{"id":265,"name":"sneaky-mandarin-condor","status":"online","latitude":"51.518283870794455","longitude":"-0.17001252217049598","performance2":"0.7759680212181275","performance1":"-0.9606520899967045"},{"id":266,"name":"sneaky-orchid-wolf","status":"online","latitude":"51.51851535199226","longitude":"-0.16968875167264014","performance2":"0.689940100457622","performance1":"1.4798694322703776"},{"id":267,"name":"soaring-mauve-salamander","status":"online","latitude":"51.51851535199226","longitude":"-0.16968875167264014","performance2":"0.051386765267676604","performance1":"0.4302695897914989"},{"id":268,"name":"soaring-quartz-wombat","status":"online","latitude":"51.54559799097794","longitude":"0.05226164038535005","performance2":"0.7890017956172176","performance1":"1.8898721349005525"},{"id":269,"name":"sour-licorice-viper","status":"online","latitude":"51.50035634255155","longitude":"-0.22466942065649212","performance2":"0.9006598617186071","performance1":"0.4743208361484414"},{"id":270,"name":"sour-peach-goldfish","status":"online","latitude":"51.482222554543625","longitude":"-0.14612355283990308","performance2":"0.7807125794478498","performance1":"-0.5639134395170551"},{"id":271,"name":"sparkly-mercurial-haddock","status":"online","latitude":"51.513719990877455","longitude":"-0.14246709109694844","performance2":"0.8404211175653227","performance1":"1.0219066705947624"},{"id":272,"name":"special-citron-pike","status":"online","latitude":"51.50847632930917","longitude":"0.006600087802678757","performance2":"0.6368729851667991","performance1":"-0.17256720869060352"},{"id":273,"name":"special-gauze-oyster","status":"online","latitude":"51.482317121998214","longitude":"0.08742248569005137","performance2":"0.0925043443451099","performance1":"0.9422770018168959"},{"id":274,"name":"special-punch-mantis","status":"offline","latitude":"51.492014174270324","longitude":"-0.17405204399094848","performance2":"0.7187054865751951","performance1":"0.6387152781074164"},{"id":275,"name":"spicy-juniper-porcupine","status":"online","latitude":"51.57008038777096","longitude":"-0.0999231800222744","performance2":"0.41465588091947925","performance1":"0.4917088443841491"},{"id":276,"name":"spicy-wintergreen-liger","status":"offline","latitude":"51.58030108555296","longitude":"0.027225607683140415","performance2":"0.09106202113751927","performance1":"-0.20980067230973906"},{"id":277,"name":"square-tiger-squirrel","status":"offline","latitude":"51.48999608048188","longitude":"-0.005130024270728539","performance2":"0.7075862577166702","performance1":"-1.4999140030308755"},{"id":278,"name":"stable-carob-flamingo","status":"online","latitude":"51.528007374841444","longitude":"-0.13882099553480196","performance2":"0.6258730244995314","performance1":"-1.3802502085111312"},{"id":279,"name":"stable-honeysuckle-crane","status":"online","latitude":"51.51637220457267","longitude":"-0.3240929285964809","performance2":"0.9991216858814623","performance1":"0.28393911139245054"},{"id":280,"name":"stable-walnut-ostrich","status":"online","latitude":"51.47338355173632","longitude":"-0.04690576115716099","performance2":"0.6052300562834816","performance1":"-0.3699162284897236"},{"id":281,"name":"stale-hazel-bird","status":"online","latitude":"51.457656345074966","longitude":"-0.14254728836456285","performance2":"0.7926716533132995","performance1":"-0.10358192985283589"},{"id":282,"name":"stale-zinc-dalmatian","status":"offline","latitude":"51.531846166094816","longitude":"0.04559160489283105","performance2":"0.10923323270181584","performance1":"-0.021849801751859604"},{"id":283,"name":"steep-ruby-mink","status":"online","latitude":"51.57277710603829","longitude":"-0.0905785564634535","performance2":"0.3020010089019092","performance1":"0.8927501913250999"},{"id":284,"name":"sticky-coal-orangutan","status":"online","latitude":"51.54834528662853","longitude":"-0.2075669820791972","performance2":"0.30634770148271984","performance1":"0.3909539311791316"},{"id":285,"name":"sticky-syrup-wallaby","status":"online","latitude":"51.491223338762424","longitude":"-0.14340497746106695","performance2":"0.07640243601198193","performance1":"1.1074833334883374"},{"id":286,"name":"straight-chartreuse-iguana","status":"online","latitude":"51.42555897704229","longitude":"-0.14362808262839188","performance2":"0.8273261647889474","performance1":"-2.2801415187089664"},{"id":287,"name":"strong-daisy-ferret","status":"online","latitude":"51.51851535199226","longitude":"-0.16968875167264014","performance2":"0.002854385094209988","performance1":"1.4922056829935906"},{"id":288,"name":"strong-fuzzy-aphid","status":"online","latitude":"51.486279821931525","longitude":"-0.20517888835883646","performance2":"0.006535891974909447","performance1":"-0.23820793368306975"},{"id":289,"name":"strong-sand-chicken","status":"online","latitude":"51.44373099958493","longitude":"-0.1114845690267874","performance2":"0.09539008697218354","performance1":"1.9891712571882114"},{"id":290,"name":"suave-linen-penguin","status":"online","latitude":"51.54623072931066","longitude":"-0.10125392060657101","performance2":"0.08836046913236661","performance1":"-0.16761301822781965"},{"id":291,"name":"sunny-honeysuckle-mallard","status":"offline","latitude":"51.499954292029564","longitude":"-0.30506191120733256","performance2":"0.7826782886748955","performance1":"-0.14769399725970236"},{"id":292,"name":"sunny-satin-goldfish","status":"online","latitude":"51.51851535199226","longitude":"-0.16968875167264014","performance2":"0.2868726194285953","performance1":"1.2039932443996508"},{"id":293,"name":"swift-gunmetal-osprey","status":"online","latitude":"51.53651003018258","longitude":"-0.14327140475669128","performance2":"0.97442704461762","performance1":"-0.7779938768718515"},{"id":294,"name":"swift-raisin-turtle","status":"online","latitude":"51.5977246657225","longitude":"-0.015657203786546163","performance2":"0.32667876213089586","performance1":"-0.48274708411372563"},{"id":295,"name":"tall-candy-falcon","status":"online","latitude":"51.506602216365955","longitude":"-0.2563345391748794","performance2":"0.2860304573514407","performance1":"1.807383938607506"},{"id":296,"name":"tangy-ginger-tarantula","status":"online","latitude":"51.4804561737649","longitude":"0.08326709957438208","performance2":"0.18904451121475996","performance1":"0.8761827942504335"},{"id":297,"name":"tangy-goldenrod-goose","status":"online","latitude":"51.49894697490238","longitude":"-0.0980653643543112","performance2":"0.05697829372738672","performance1":"-0.41107510448045215"},{"id":298,"name":"tart-pastel-seal","status":"online","latitude":"51.48654266711429","longitude":"-0.1370018552646552","performance2":"0.6311043821857418","performance1":"-1.3921986799727297"},{"id":299,"name":"thankful-linen-ram","status":"online","latitude":"51.54103384590265","longitude":"-0.021784867098835942","performance2":"0.7974233247153945","performance1":"1.0310785630951145"},{"id":300,"name":"tiny-fuzzy-duck","status":"online","latitude":"51.460159057984136","longitude":"-0.05925115126364922","performance2":"0.7817853396326055","performance1":"0.9955461242092982"},{"id":301,"name":"trendy-ginger-starling","status":"online","latitude":"51.463689066764346","longitude":"-0.2089787295422184","performance2":"0.6478739876004602","performance1":"1.0654921136120894"},{"id":302,"name":"trendy-myrtle-hippo","status":"online","latitude":"51.40714048338067","longitude":"-0.12069844435986946","performance2":"0.31851095376186733","performance1":"0.39632292402212443"},{"id":303,"name":"uneven-watermelon-locust","status":"online","latitude":"51.56323547291184","longitude":"-0.04836679462532141","performance2":"0.6381394622402403","performance1":"-1.5087276453205614"},{"id":304,"name":"unique-chocolate-woodpecker","status":"online","latitude":"51.52361903257773","longitude":"-0.0588737736678009","performance2":"0.04215502034849394","performance1":"1.648914224777071"},{"id":305,"name":"unique-coal-lemur","status":"online","latitude":"51.51505914923293","longitude":"-0.17884042969115124","performance2":"0.5109237905385793","performance1":"-0.21689741407293417"},{"id":306,"name":"upbeat-macaroon-mammoth","status":"online","latitude":"51.50008172094758","longitude":"-0.23738343383084515","performance2":"0.18153360057716228","performance1":"0.00037349480047809064"},{"id":307,"name":"urban-iris-parakeet","status":"online","latitude":"51.522756642838594","longitude":"-0.1575856912995668","performance2":"0.43790950710299337","performance1":"0.5419553304083229"},{"id":308,"name":"vast-dijon-cobra","status":"offline","latitude":"51.5348937271127","longitude":"0.056977535235947785","performance2":"0.9094702226097351","performance1":"-1.297928981059058"},{"id":309,"name":"warm-coral-dachshund","status":"online","latitude":"51.46804118471217","longitude":"-0.1194101735015707","performance2":"0.86148010921437","performance1":"0.056204770614931565"},{"id":310,"name":"warm-plastic-lemur","status":"online","latitude":"51.55678631695579","longitude":"-0.2445274495708005","performance2":"0.7580975528284725","performance1":"0.6889427989293794"},{"id":311,"name":"wide-indigo-toad","status":"online","latitude":"51.4307147293095","longitude":"-0.16875695087460085","performance2":"0.029417095396402693","performance1":"-1.1109063633439806"},{"id":312,"name":"wide-strawberry-lemur","status":"online","latitude":"51.55612431923891","longitude":"-0.1012765432197814","performance2":"0.5664103628588352","performance1":"2.484872267349403"},{"id":313,"name":"wild-heather-lynx","status":"online","latitude":"51.518472834239255","longitude":"-0.16943976113466133","performance2":"0.9168693121314838","performance1":"2.9039730217322806"},{"id":314,"name":"winning-zinc-snake","status":"online","latitude":"51.499421763899996","longitude":"-0.01905811934954324","performance2":"0.3883809715105462","performance1":"0.24163450202956666"},{"id":315,"name":"witty-daisy-canary","status":"offline","latitude":"51.53925931861126","longitude":"0.045820607074083086","performance2":"0.664708547676571","performance1":"-1.662968747027043"},{"id":316,"name":"wobbly-cream-sloth","status":"online","latitude":"51.53951411452122","longitude":"-0.05294053415856122","performance2":"0.49758441532298125","performance1":"0.6194743798287501"},{"id":317,"name":"wobbly-orchid-chipmunk","status":"online","latitude":"51.53091278909253","longitude":"-0.20201728026196286","performance2":"0.8072201913157842","performance1":"0.6535583007076441"},{"id":318,"name":"wonderful-aegean-hippo","status":"online","latitude":"51.47902125223733","longitude":"-0.09727545032154243","performance2":"0.6202590134728081","performance1":"0.01248014387309273"},{"id":319,"name":"wonderful-quartz-penguin","status":"offline","latitude":"51.447529004291155","longitude":"-0.012528675995208294","performance2":"0.0037273270360609345","performance1":"1.3315140248085588"},{"id":320,"name":"young-coal-cobra","status":"online","latitude":"51.48819781204731","longitude":"0.09568219435381776","performance2":"0.7312456588800641","performance1":"-0.14718334092364377"},{"id":321,"name":"zany-orange-camel","status":"online","latitude":"51.47001948669429","longitude":"-0.12342419136797445","performance2":"0.9574244216011882","performance1":"-1.4406121186875278"},{"id":322,"name":"zealous-banana-capybara","status":"online","latitude":"51.49149736369638","longitude":"-0.14333012333145306","performance2":"0.9279069967046897","performance1":"-0.6514432233969957"},{"id":323,"name":"zealous-carmine-snail","status":"online","latitude":"51.51851535199226","longitude":"-0.16968875167264014","performance2":"0.38983563062495996","performance1":"0.10668991236931125"},{"id":324,"name":"zealous-honey-bat","status":"online","latitude":"51.51851535199226","longitude":"-0.16968875167264014","performance2":"0.10544555106729547","performance1":"0.6303376198417385"},{"id":325,"name":"zesty-blush-cow","status":"online","latitude":"51.51851535199226","longitude":"-0.16968875167264014","performance2":"0.5252964128162873","performance1":"0.1321058237312179"},{"id":326,"name":"zesty-metal-cobra","status":"online","latitude":"51.51851535199226","longitude":"-0.16968875167264014","performance2":"0.8533730153007019","performance1":"-0.07462255095390846"}]